,stop_id,stop_code,stop_name,stop_desc,stop_lat,stop_lon,zone_id,stop_url
0,390,1390,19th Avenue & Holloway St, ,37.72119,-122.475096, , 
1,913,1913,DUBLIN ST & LAGRANDE AVE, ,37.719192,-122.425802, , 
2,3003,13003,2nd St & Brannan St   , ,37.781827,-122.39194499999999, , 
3,3004,13004,2nd St & Brannan St   , ,37.781853999999996,-122.392232, , 
4,3009,13009,2nd St & Harrison St   , ,37.784532,-122.395325, , 
5,3010,13010,2nd St & Harrison St   , ,37.784095,-122.395016, , 
6,3011,13011,2nd St & Howard St   , ,37.786559000000004,-122.398109, , 
7,3013,13013,2nd St & Stevenson St   , ,37.78862,-122.40065, , 
8,3015,13015,2nd St & Townsend St   , ,37.780621999999994,-122.390685, , 
9,3016,13016,3rd St & 4th St  , ,37.772618,-122.38978600000002, , 
10,3018,13018,Bacon St & San Bruno Ave   , ,37.727739,-122.40324, , 
11,3019,13019,Bacon St & San Bruno Ave  , ,37.727645,-122.403269, , 
12,3020,13020,Bacon St & Somerset St  , ,37.72667,-122.40746000000001, , 
13,3021,13021,Bacon St & Somerset St  , ,37.72654,-122.40766, , 
14,3023,13023,BOWLEY ST & GIBSON RD, ,37.790248999999996,-122.48226299999999, , 
15,3024,13024,Baker St & Greenwich St  , ,37.797606,-122.44569299999999, , 
16,3025,13025,Battery St & Broadway  , ,37.798311,-122.40109299999999, , 
17,3026,13026,Battery St & Filbert St  , ,37.802209999999995,-122.401894, , 
18,3029,13029,Battery St & Green St  , ,37.80055,-122.40151000000002, , 
19,3030,13030,Battery St & Jackson St  , ,37.796859999999995,-122.40077, , 
20,3031,13031,Bay St & Midway St  , ,37.806094,-122.40916100000001, , 
21,3032,13032,Balboa St & 4th Ave  , ,37.777396,-122.461751, , 
22,3033,13033,Balboa St & 4th Ave  , ,37.777262,-122.461969, , 
23,3034,13034,Balboa St & 6th Ave  , ,37.777289,-122.46415800000001, , 
24,3035,13035,Balboa St & 6th Ave  , ,37.777173,-122.463849, , 
25,3036,13036,Balboa St & 8th Ave  , ,37.777198999999996,-122.46603799999998, , 
26,3037,13037,Balboa St & 8th Ave  , ,37.777065,-122.466256, , 
27,3038,13038,Balboa St & 10th Ave  , ,37.777101,-122.46817, , 
28,3039,13039,Balboa St & 10th Ave  , ,37.776967,-122.46838799999999, , 
29,3040,13040,Balboa St & 12th Ave  , ,37.777002,-122.47031299999999, , 
30,3041,13041,Balboa St & 12th Ave  , ,37.776868,-122.47053100000001, , 
31,3042,13042,Balboa St & 14th Ave  , ,37.77678,-122.4727, , 
32,3043,13043,Balboa St & 17th Ave  , ,37.776759999999996,-122.475769, , 
33,3044,13044,Balboa St & 17th Ave  , ,37.776626,-122.47598700000002, , 
34,3045,13045,Balboa St & 19th Ave  , ,37.776662,-122.47791200000002, , 
35,3046,13046,Balboa St & 19th Ave  , ,37.776528000000006,-122.47813000000001, , 
36,3047,13047,Balboa St & 21st Ave  , ,37.776563,-122.480056, , 
37,3048,13048,Balboa St & 21st Ave  , ,37.776429,-122.480273, , 
38,3049,13049,Balboa St & 23rd Ave  , ,37.77647,-122.48218999999999, , 
39,3050,13050,Balboa St & 23rd Ave  , ,37.77633,-122.482417, , 
40,3051,13051,Balboa St & 25th Ave  , ,37.776356,-122.484606, , 
41,3052,13052,Balboa St & 25th Ave  , ,37.77624,-122.484296, , 
42,3053,13053,Balboa St & 28th Ave  , ,37.776222,-122.487551, , 
43,3054,13054,Balboa St & 28th Ave  , ,37.776088,-122.487769, , 
44,3055,13055,Balboa St & 30th Ave  , ,37.776114,-122.489958, , 
45,3056,13056,Balboa St & 30th Ave  , ,37.775989,-122.48991200000002, , 
46,3057,13057,Balboa St & 32nd Ave  , ,37.776024,-122.49183799999999, , 
47,3058,13058,Balboa St & 32nd Ave  , ,37.775890000000004,-122.492056, , 
48,3059,13059,Balboa St & 34th Ave  , ,37.775791,-122.494199, , 
49,3060,13060,Balboa St & 35th Ave   , ,37.775898,-122.494577, , 
50,3061,13061,Balboa St & 37th Ave  , ,37.775781,-122.497202, , 
51,3062,13062,Balboa St & 37th Ave  , ,37.775647,-122.497419, , 
52,3063,13063,Balboa St & 40th Ave  , ,37.775636999999996,-122.500399, , 
53,3064,13064,Balboa St & 40th Ave  , ,37.775503,-122.50061699999999, , 
54,3065,13065,Balboa St & 43rd Ave  , ,37.775484000000006,-122.50362, , 
55,3066,13066,Balboa St & 43rd Ave  , ,37.77535,-122.50383799999999, , 
56,3067,13067,Balboa St & Arguello Blvd  , ,37.77747,-122.45886000000002, , 
57,3070,13070,Balboa St & Park Presidio Blvd, ,37.776895,-122.472227, , 
58,3071,13071,Balboa St & Park Presidio Blvd, ,37.776788,-122.47241100000001, , 
59,3072,13072,Broderick St & Bay St  , ,37.801541,-122.44479799999999, , 
60,3074,13074,Broderick St & Beach St  , ,37.803415,-122.445176, , 
61,3075,13075,Broderick St & Francisco St  , ,37.800622,-122.444603, , 
62,3076,13076,Broderick St & Jefferson St  , ,37.804342999999996,-122.44536000000001, , 
63,3077,13077,Broderick St & North Point St , ,37.802478,-122.44498200000001, , 
64,3082,13082,Broadway & Grant Ave  , ,37.797831,-122.406345, , 
65,3084,13084,Broadway & Montgomery St  , ,37.798134000000005,-122.40396000000001, , 
66,3085,13085,Broadway & Steiner St  , ,37.794131,-122.436442, , 
67,3086,13086,Broadway & Steiner St  , ,37.794056,-122.436278, , 
68,3087,13087,Broadway & Stockton St  , ,37.797591,-122.408294, , 
69,3089,13089,Beale St & Mission St   , ,37.791939,-122.396879, , 
70,3090,13090,Beach St & Divisadero St  , ,37.803629,-122.443674, , 
71,3092,13092,Beach St & Mason St  , ,37.807407,-122.414125, , 
72,3093,13093,Beach St & Polk St   , ,37.806375,-122.42319499999999, , 
73,3094,13094,Beach St & Scott St   , ,37.803779999999996,-122.44258, , 
74,3095,13095,Beach St & Stockton St  , ,37.807840999999996,-122.41081000000001, , 
75,3096,13096,Bemis St & Moffitt St   , ,37.736655,-122.43118100000001, , 
76,3103,13103,3rd St & 20th St  , ,37.76079,-122.38846000000001, , 
77,3104,13104,3rd St & 20th St  , ,37.76059,-122.3887, , 
78,3107,13107,3rd St & 23rd St  , ,37.75569,-122.3879, , 
79,3108,13108,3rd St & 23rd St  , ,37.75506,-122.3881, , 
80,3113,13113,3rd St & Bayview St  , ,37.732279999999996,-122.39155900000002, , 
81,3114,13114,3rd St & Brannan St   , ,37.779284999999994,-122.393185, , 
82,3115,13115,3rd St & Carroll Ave   , ,37.72567,-122.3943, , 
83,3116,13116,3rd St & Carroll Ave   , ,37.7253,-122.3942, , 
84,3123,13123,3rd St & Evans Ave  , ,37.74244,-122.38815, , 
85,3124,13124,3rd St & Folsom St   , ,37.784203999999995,-122.399326, , 
86,3127,13127,3rd St & Hudson Ave   , ,37.740120000000005,-122.3887, , 
87,3128,13128,3rd St & Howard St   , ,37.784945,-122.400254, , 
88,3129,13129,3rd St & Innes Ave   , ,37.73932,-122.38926000000001, , 
89,3134,13134,3rd St & La Salle Ave   , ,37.737213,-122.389803, , 
90,3135,13135,3rd St & Kirkwood Ave, ,37.737927,-122.389619, , 
91,3136,13136,3rd St & Stevenson St, ,37.786373,-122.40211000000001, , 
92,3141,13141,3rd St & Palou Ave   , ,37.734091,-122.390928, , 
93,3143,13143,3rd St & Oakdale Ave, ,37.734787,-122.390721, , 
94,3144,13144,3rd St & Perry St   , ,37.782106,-122.396805, , 
95,3145,13145,3rd St & Revere Ave   , ,37.73225,-122.39146000000001, , 
96,3146,13146,3rd St & Salinas Ave  , ,37.72078,-122.39648999999999, , 
97,3149,13149,3rd St & Van Dyke Ave   , ,37.729238,-122.39259299999999, , 
98,3150,13150,3rd St & Williams Ave  , ,37.729166,-122.392776, , 
99,3153,13153,4th St & 3rd St   , ,37.772966,-122.38969399999999, , 
100,3161,13161,4th St & Market St   , ,37.785527,-122.405675, , 
101,3163,13163,4th St & Townsend St   , ,37.777109,-122.39513500000001, , 
102,3164,13164,4TH ST & TOWNSEND ST, ,37.776894,-122.39489499999999, , 
103,3166,13166,5th St & Brannan St   , ,37.776540000000004,-122.39856999999999, , 
104,3168,13168,5th St & Folsom St   , ,37.78031,-122.40357, , 
105,3170,13170,5th St & Howard St   , ,37.78145,-122.40475, , 
106,3171,13171,5th St & Howard St   , ,37.78123,-122.40473999999999, , 
107,3172,13172,5th St & Mission St   , ,37.782959999999996,-122.40665, , 
108,3173,13173,5th St & Mission St   , ,37.78277,-122.40665, , 
109,3174,13174,5th St & Townsend St   , ,37.775490000000005,-122.39716000000001, , 
110,3177,13177,6th Ave & Balboa St  , ,37.777146,-122.46391799999999, , 
111,3178,13178,6th Ave & Balboa St  , ,37.776984999999996,-122.46408999999998, , 
112,3180,13180,6th Ave & Clement St  , ,37.783053,-122.464377, , 
113,3181,13181,6th Ave & Clement St  , ,37.783026,-122.464526, , 
114,3182,13182,6th Ave & Cornwall St  , ,37.784673,-122.46448000000001, , 
115,3183,13183,6th Ave & Fulton St  , ,37.773809,-122.46374499999999, , 
116,3184,13184,6th Ave & Geary Blvd  , ,37.780876,-122.46418200000001, , 
117,3185,13185,6th Ave & Geary Blvd  , ,37.780768,-122.464354, , 
118,3187,13187,6th St & Harrison St   , ,37.77732,-122.40423999999999, , 
119,3188,13188,1697 7th Ave  , ,37.756597,-122.46374099999998, , 
120,3189,13189,1697 7th Ave, ,37.756766999999996,-122.46356999999999, , 
121,3191,13191,7th St & Brannan St   , ,37.773266,-122.40336699999999, , 
122,3192,13192,7th St & Folsom St   , ,37.776864,-122.407904, , 
123,3193,13193,7th St & Harrison St   , ,37.775729999999996,-122.40646000000001, , 
124,3194,13194,7th St & Howard St   , ,37.777935,-122.409222, , 
125,3195,13195,7th St & Mission St   , ,37.779327,-122.411032, , 
126,3196,13196,7th St & Market St   , ,37.780309,-122.41239499999999, , 
127,3197,13197,7th St & Townsend St   , ,37.772034000000005,-122.401821, , 
128,3200,13200,8th Ave & Cabrillo St  , ,37.775022,-122.466095, , 
129,3201,13201,8th Ave & Fulton St  , ,37.773639,-122.46580800000001, , 
130,3202,13202,8th Ave & Fulton St  , ,37.773478000000004,-122.46598, , 
131,3203,13203,8th St & Brannan St   , ,37.771179,-122.40538600000001, , 
132,3204,13204,8th St & Bryant St   , ,37.772535999999995,-122.407127, , 
133,3205,13205,8th St & Folsom St   , ,37.774767,-122.409922, , 
134,3206,13206,8th St & Harrison St   , ,37.773536,-122.408376, , 
135,3208,13208,8th St & Mission St   , ,37.77724,-122.413027, , 
136,3209,13209,8th St & Market St   , ,37.778498,-122.414597, , 
137,3211,13211,9th Ave & Irving St  , ,37.764288,-122.466241, , 
138,3212,13212,9th Ave & Irving St  , ,37.763913,-122.466241, , 
139,3213,13213,9th Ave & Irving St  , ,37.763797,-122.46638999999999, , 
140,3214,13214,9th Ave & Judah St  , ,37.762093,-122.46608, , 
141,3215,13215,9th Ave & Judah St  , ,37.76204,-122.466241, , 
142,3216,13216,9th Ave & Kirkham St  , ,37.760407,-122.466149, , 
143,3217,13217,9th Ave & Kirkham St  , ,37.760237,-122.46595400000001, , 
144,3218,13218,9th Ave & Lawton St  , ,37.758533,-122.466022, , 
145,3219,13219,9th Ave & Lawton St  , ,37.758364,-122.465827, , 
146,3220,13220,9th Ave & Lincoln Way  , ,37.76585,-122.46634499999999, , 
147,3221,13221,9th Ave & Lincoln Way  , ,37.765689,-122.466517, , 
148,3222,13222,9th Ave & Moraga St  , ,37.756677,-122.465884, , 
149,3223,13223,9th Ave & Moraga St  , ,37.756508000000004,-122.46568899999998, , 
150,3224,13224,9th Ave & Noriega St  , ,37.754804,-122.46575800000001, , 
151,3225,13225,9th Ave & Noriega St  , ,37.754634,-122.465551, , 
152,3226,13226,9th Ave & Ortega St  , ,37.752939000000005,-122.465631, , 
153,3229,13229,9th St & Avenue H  , ,37.825196000000005,-122.37006299999999, , 
154,3230,13230,10th Ave & Ortega St  , ,37.752724,-122.466502, , 
155,3231,13231,10th Ave & Pacheco St  , ,37.750859999999996,-122.466376, , 
156,3232,13232,10th Ave & Pacheco St  , ,37.750699,-122.46654699999999, , 
157,3233,13233,10th Ave & Quintara St  , ,37.749325,-122.46626100000002, , 
158,3234,13234,10th Ave & Quintara St  , ,37.749164,-122.46643200000001, , 
159,3235,13235,11th St & Bryant St   , ,37.769807,-122.4113, , 
160,3238,13238,11th St & Harrison St   , ,37.770691,-122.412526, , 
161,3239,13239,11th St & Harrison St   , ,37.770557000000004,-122.41249199999999, , 
162,3240,13240,11th St & Howard St   , ,37.77333,-122.41573000000001, , 
163,3241,13241,11th St & Howard St   , ,37.77283,-122.41538, , 
164,3243,13243,11th St & Mission St   , ,37.774038,-122.41689099999999, , 
165,3244,13244,11th St & Market St   , ,37.7755,-122.41852, , 
166,3245,13245,11th St & Market St   , ,37.775368,-122.418575, , 
167,3247,13247,14th Ave & Quintara St   , ,37.748870000000004,-122.47073999999999, , 
168,3248,13248,14th Ave & Santiago St  , ,37.74503,-122.4703, , 
169,3249,13249,14th Ave & Taraval St  , ,37.7434,-122.4703, , 
170,3250,13250,14th Ave & Taraval St  , ,37.74317,-122.47017, , 
171,3251,13251,14th Ave & Ulloa St  , ,37.7416,-122.47004, , 
172,3252,13252,14th Ave & Ulloa St  , ,37.74153,-122.47018, , 
173,3253,13253,14th St & Alpine Ter  , ,37.767296,-122.43721299999999, , 
174,3254,13254,14th St & Church St  , ,37.767768,-122.429088, , 
175,3255,13255,14th St & Church St  , ,37.76767,-122.42913, , 
176,3256,13256,14th St & Castro St  , ,37.767379999999996,-122.43583999999998, , 
177,3257,13257,14th St & Castro St  , ,37.76728,-122.43578000000001, , 
178,3258,13258,14th St & Noe St  , ,37.767509999999994,-122.43327, , 
179,3259,13259,14th St & Noe St  , ,37.7674,-122.43356000000001, , 
180,3260,13260,14th St & SANCHEZ ST, ,37.76767,-122.431105, , 
181,3261,13261,14th St & Sanchez St  , ,37.767536,-122.43127700000001, , 
182,3262,13262,15th Ave & Noriega St  , ,37.75411,-122.47216999999999, , 
183,3263,13263,15th Ave & Ortega St  , ,37.75268,-122.47206000000001, , 
184,3264,13264,15th Ave & Pacheco St  , ,37.750809999999994,-122.47196000000001, , 
185,3265,13265,15th Ave & Quintara St  , ,37.748909999999995,-122.47183000000001, , 
186,3266,13266,15th Ave & Taraval St  , ,37.743124,-122.47129699999999, , 
187,3267,13267,15th Ave & Taraval St  , ,37.743069,-122.471405, , 
188,3270,13270,15th Ave & West Portal Ave   , ,37.736387,-122.470381, , 
189,3272,13272,16th Ave & Lawton St   , ,37.758109999999995,-122.47367, , 
190,3273,13273,16th Ave & Lawton St  , ,37.7593,-122.4737, , 
191,3275,13275,16th Ave & Lomita Ave  , ,37.75697,-122.47351, , 
192,3276,13276,16th Ave & Moraga St   , ,37.7563,-122.47361000000001, , 
193,3277,13277,16th Ave & Moraga St  , ,37.75636,-122.47368, , 
194,3278,13278,16th Ave & Noriega St  , ,37.75425,-122.47321000000001, , 
195,3279,13279,16th Ave & Ortega St  , ,37.7524,-122.47308999999998, , 
196,3280,13280,16th Ave & Pacheco St  , ,37.75054,-122.47295, , 
197,3281,13281,16th St & Bryant St  , ,37.765658,-122.410294, , 
198,3282,13282,16th St & Bryant St  , ,37.765595000000005,-122.410408, , 
199,3283,13283,16th St & Church St  , ,37.764579,-122.428523, , 
200,3284,13284,16th St & Dolores St  , ,37.764731,-122.426156, , 
201,3285,13285,16th St & Dolores St  , ,37.764575,-122.426579, , 
202,3286,13286,16th St & Guerrero St  , ,37.764853,-122.42395900000001, , 
203,3287,13287,16th St & Guerrero St  , ,37.764720000000004,-122.424256, , 
204,3288,13288,16th St & Harrison St  , ,37.765522999999995,-122.412976, , 
205,3289,13289,16th St & Harrison St  , ,37.765377,-122.41328999999999, , 
206,3291,13291,16th St & Mission St  , ,37.765143,-122.4196, , 
207,3292,13292,16th St & Mission St  , ,37.76502,-122.41928, , 
208,3293,13293,16th St & Mission St  , ,37.764983,-122.419835, , 
209,3295,13295,16th St & Potrero Ave  , ,37.7658,-122.407624, , 
210,3296,13296,16th St & Potrero Ave  , ,37.765764000000004,-122.40761200000001, , 
211,3297,13297,16th St & San Bruno Ave  , ,37.765861,-122.405515, , 
212,3299,13299,16th St & Shotwell St  , ,37.765218,-122.416048, , 
213,3300,13300,16th St & Valencia St  , ,37.764987,-122.421746, , 
214,3301,13301,16th St & Valencia St  , ,37.764849,-122.42205600000001, , 
215,3302,13302,16th St & Vermont St  , ,37.766039,-122.40468999999999, , 
216,3304,13304,17th Ave & Rivera St  , ,37.74698,-122.47391, , 
217,3305,13305,17th Ave & Rivera St  , ,37.746745000000004,-122.473707, , 
218,3306,13306,17th Ave & Santiago St  , ,37.74511,-122.47373999999999, , 
219,3307,13307,17th St & Belvedere St  , ,37.761759999999995,-122.44768, , 
220,3309,13309,17th St & Clayton St  , ,37.761854,-122.446702, , 
221,3310,13310,17th St & Cole St  , ,37.76168,-122.44898, , 
222,3311,13311,17th St & Castro St  , ,37.762576,-122.434979, , 
223,3312,13312,17th St & De Haro St  , ,37.764904,-122.401451, , 
224,3313,13313,17th St & De Haro St  , ,37.764771,-122.401711, , 
225,3314,13314,17th St & Diamond St  , ,37.762415000000004,-122.43748899999999, , 
226,3317,13317,17th St & Kansas St  , ,37.764727,-122.403544, , 
227,3318,13318,17th St & Noe St , ,37.762645,-122.43299099999999, , 
228,3321,13321,18th St & 3rd St  , ,37.762992,-122.388925, , 
229,3322,13322,18th St & Church St  , ,37.76137,-122.428195, , 
230,3323,13323,18th St & Church St  , ,37.761245,-122.42813799999999, , 
231,3324,13324,18th St & Connecticut St  , ,37.76258,-122.397352, , 
232,3325,13325,18th St & Castro St  , ,37.760952,-122.435151, , 
233,3326,13326,18th St & Castro St  , ,37.760845,-122.43484199999999, , 
234,3327,13327,18th St & Danvers St  , ,37.760355,-122.44353999999998, , 
235,3328,13328,18th St & Danvers St  , ,37.76024,-122.44349, , 
236,3329,13329,18th St & Diamond St  , ,37.760702,-122.437294, , 
237,3330,13330,18th St & Dolores St  , ,37.761486,-122.42623600000002, , 
238,3331,13331,18th St & Dolores St  , ,37.761388000000004,-122.425927, , 
239,3332,13332,18th St & Eureka St  , ,37.760765,-122.438154, , 
240,3333,13333,18th St & Guerrero St  , ,37.761619,-122.423955, , 
241,3334,13334,18th St & Guerrero St  , ,37.761521,-122.42364599999999, , 
242,3335,13335,18th St & Hattie St  , ,37.760585999999996,-122.44108700000001, , 
243,3336,13336,18th St & Hattie St  , ,37.760488,-122.44077800000001, , 
244,3337,13337,18th St & Minnesota St  , ,37.762874,-122.39084799999999, , 
245,3338,13338,18th St & Mission St  , ,37.761895,-122.419509, , 
246,3339,13339,18th St & Market St  , ,37.759792,-122.444445, , 
247,3340,13340,18th St & Noe St  , ,37.761094,-122.43268799999998, , 
248,3341,13341,18th St & Noe St  , ,37.76096,-122.432905, , 
249,3342,13342,18th St & Pennsylvania Ave  , ,37.762828000000006,-122.39347099999999, , 
250,3343,13343,18th St & Pennsylvania Ave  , ,37.762732,-122.39322, , 
251,3344,13344,18th St & Sanchez St  , ,37.761228,-122.43046399999999, , 
252,3345,13345,18th St & Sanchez St  , ,37.761094,-122.430682, , 
253,3346,13346,18th St & Texas St  , ,37.762701,-122.395422, , 
254,3347,13347,18th St & Texas St  , ,37.762621,-122.39516, , 
255,3348,13348,18th St & Valencia St  , ,37.761762,-122.421732, , 
256,3349,13349,18th St & Valencia St  , ,37.761663,-122.421423, , 
257,3352,13352,19th Ave & Buckingham Way  , ,37.725732,-122.47506299999999, , 
258,3354,13354,19th Ave & Eucalyptus Dr  , ,37.731175,-122.474962, , 
259,3355,13355,19th Ave & Eucalyptus Dr  , ,37.73097,-122.47471999999999, , 
260,3356,13356,19th Ave & Holloway Ave  , ,37.721109999999996,-122.475302, , 
261,3357,13357,19TH AVE & Holloway Ave, ,37.72094,-122.475004, , 
262,3358,13358,19th Ave & Holloway Ave  , ,37.721342,-122.475245, , 
263,3359,13359,19th Ave & Irving St  , ,37.76368,-122.47731, , 
264,3360,13360,19th Ave & Irving St  , ,37.76343,-122.47703999999999, , 
265,3361,13361,19th Ave & Junipero Serra Blvd , ,37.716889,-122.472275, , 
266,3362,13362,19th Ave & Junipero Serra Blvd , ,37.71805,-122.47318, , 
267,3363,13363,19th Ave & Junipero Serra Blvd , ,37.717323,-122.47296999999999, , 
268,3364,13364,19th Ave & Judah St  , ,37.7616,-122.476932, , 
269,3365,13365,19th Ave & Judah St  , ,37.7614,-122.47711000000001, , 
270,3366,13366,19th Ave & Kirkham St  , ,37.76015,-122.47671000000001, , 
271,3367,13367,19th Ave & Kirkham St  , ,37.75995,-122.47695, , 
272,3368,13368,19th Ave & Lawton St  , ,37.75786,-122.47653999999999, , 
273,3369,13369,19th Ave & Lawton St  , ,37.757889,-122.476782, , 
274,3371,13371,19th Ave & Lincoln Way  , ,37.765375,-122.477404, , 
275,3372,13372,19th Ave & Moraga St  , ,37.75622,-122.47668999999999, , 
276,3373,13373,19th Ave & Moraga St  , ,37.755990000000004,-122.47641999999999, , 
277,3374,13374,19th Ave & Noriega St  , ,37.75412,-122.47628999999999, , 
278,3375,13375,19th Ave & Noriega St  , ,37.75392,-122.47653000000001, , 
279,3376,13376,19th Ave & Randolph St  , ,37.7162,-122.47166999999999, , 
280,3377,13377,19th Ave & Ocean Ave  , ,37.73279,-122.4751, , 
281,3378,13378,19th Ave & Ocean Ave  , ,37.73212,-122.4748, , 
282,3379,13379,19th Ave & Ortega St  , ,37.752720000000004,-122.47618999999999, , 
283,3380,13380,19th Ave & Ortega St  , ,37.75206,-122.4764, , 
284,3381,13381,19th Ave & Pacheco St  , ,37.7504,-122.47603000000001, , 
285,3382,13382,19th Ave & Pacheco St  , ,37.7502,-122.47627, , 
286,3383,13383,19th Ave & Quintara St  , ,37.74853,-122.4759, , 
287,3384,13384,19th Ave & Quintara St  , ,37.7483,-122.47613999999999, , 
288,3385,13385,19th Ave & Randolph St   , ,37.714282,-122.469618, , 
289,3387,13387,19th Ave & Randolph St   , ,37.714443,-122.469998, , 
290,3388,13388,19th Ave & Rivera St  , ,37.74667,-122.47577, , 
291,3389,13389,19th Ave & Rivera St  , ,37.74647,-122.47601, , 
292,3390,13390,19th Ave & Sloat Blvd  , ,37.734556,-122.47520300000001, , 
293,3391,13391,19th Ave & Sloat Blvd  , ,37.734716999999996,-122.474974, , 
294,3392,13392,19th Ave & Santiago St  , ,37.74524,-122.47567, , 
295,3393,13393,19th Ave & Santiago St  , ,37.74507,-122.4759, , 
296,3394,13394,19th Ave & Taraval St  , ,37.74331,-122.47554, , 
297,3395,13395,19th Ave & Taraval St  , ,37.743179999999995,-122.47578, , 
298,3396,13396,19th Ave & Ulloa St  , ,37.74149,-122.47543, , 
299,3397,13397,19th Ave & Ulloa St  , ,37.74129,-122.47568000000001, , 
300,3398,13398,19th Ave & Vicente St  , ,37.7392,-122.47528, , 
301,3399,13399,19th Ave & Vicente St  , ,37.73901,-122.47553, , 
302,3400,13400,19th Ave & Wawona St  , ,37.73757,-122.47542, , 
303,3401,13401,19th Ave & Wawona St  , ,37.73734,-122.47515, , 
304,3402,13402,19th Ave & Winston Dr  , ,37.72719,-122.47468, , 
305,3403,13403,19th Ave & Winston Dr  , ,37.727017,-122.47493700000001, , 
306,3404,13404,20th Ave & Buckingham Way  , ,37.73042,-122.47588, , 
307,3405,13405,20th Ave & Buckingham Way  , ,37.729997,-122.476049, , 
308,3406,13406,20th Av/Macy's Stonestown, ,37.72887,-122.47568000000001, , 
309,3408,13408,20th Ave & Winston Dr  , ,37.726874,-122.475945, , 
310,3409,13409,20th Ave & Winston Dr  , ,37.72634,-122.47613, , 
311,3410,13410,20th St & 3rd St  , ,37.760536,-122.38870700000001, , 
312,3411,13411,20th St & 3rd St  , ,37.760465,-122.38840900000001, , 
313,3412,13412,20th St & Arkansas St  , ,37.75996,-122.39808000000001, , 
314,3413,13413,20th St & Arkansas St  , ,37.75987,-122.39836000000001, , 
315,3414,13414,20th St & Collingwood St  , ,37.757677,-122.435966, , 
316,3415,13415,20th St & Eureka St  , ,37.757560999999995,-122.437845, , 
317,3424,13424,21st St & Douglass St  , ,37.755359999999996,-122.43901000000001, , 
318,3425,13425,22nd Ave & Irving St  , ,37.763678999999996,-122.480268, , 
319,3426,13426,22nd Ave & Judah St  , ,37.761457,-122.480106, , 
320,3427,13427,22nd Ave & Kirkham St  , ,37.759592,-122.47998, , 
321,3428,13428,22nd Ave & Lawton St  , ,37.757754,-122.479853, , 
322,3429,13429,22nd Ave & Lincoln Way  , ,37.765186,-122.480372, , 
323,3430,13430,22nd Ave & Moraga St  , ,37.755897999999995,-122.47971399999999, , 
324,3431,13431,22nd Ave & Noriega St  , ,37.754337,-122.479611, , 
325,3432,13432,22nd St & 3rd St  , ,37.75801,-122.38808999999999, , 
326,3435,13435,22nd St & Iowa St  , ,37.757754,-122.392273, , 
327,3436,13436,22nd St & Minnesota St  , ,37.757870000000004,-122.39008000000001, , 
328,3437,13437,22nd St & Minnesota St  , ,37.75779,-122.39, , 
329,3439,13439,22nd St & Pennsylvania Ave  , ,37.757674,-122.39230800000001, , 
330,3441,13441,23rd Ave & Irving St  , ,37.763134,-122.481482, , 
331,3442,13442,23rd Ave & Judah St  , ,37.761608,-122.481378, , 
332,3443,13443,23rd Ave & Kirkham St  , ,37.759735,-122.48123999999999, , 
333,3444,13444,23rd Ave & Lawton St  , ,37.757870000000004,-122.481113, , 
334,3445,13445,23rd Ave & Lincoln Way  , ,37.765026,-122.481609, , 
335,3446,13446,23rd Ave & Moraga St  , ,37.756014,-122.48098600000002, , 
336,3447,13447,23rd Ave & Noriega St  , ,37.75414,-122.48086, , 
337,3448,13448,23rd St & Diamond St  , ,37.752697999999995,-122.436539, , 
338,3449,13449,23rd St & Eureka St  , ,37.75277,-122.43738700000002, , 
339,3450,13450,23RD ST & KANSAS ST, ,37.754448,-122.40266799999999, , 
340,3452,13452,23rd St & Rhode Island St  , ,37.754509999999996,-122.40169399999999, , 
341,3453,13453,23rd St & Utah St  , ,37.75442,-122.40494, , 
342,3454,13454,23rd St & Utah St  , ,37.754298,-122.405304, , 
343,3455,13455,23rd St & Vermont St  , ,37.75448,-122.40391000000001, , 
344,3456,13456,23rd St & Vermont St  , ,37.754395,-122.403631, , 
345,3457,13457,23rd St & Wisconsin St  , ,37.75481,-122.39856, , 
346,3458,13458,24th St & Bryant St  , ,37.752853,-122.40928100000001, , 
347,3459,13459,24th St & Bryant St  , ,37.752755,-122.408971, , 
348,3460,13460,24th St & Church St  , ,37.751778,-122.427327, , 
349,3461,13461,24th St & Church St  , ,37.751644,-122.427545, , 
350,3462,13462,24th St & Castro St  , ,37.75136,-122.434248, , 
351,3463,13463,24th St & Castro St  , ,37.751262,-122.433939, , 
352,3464,13464,24th St & Diamond St  , ,37.751226,-122.43618400000001, , 
353,3465,13465,24th St & Diamond St  , ,37.751092,-122.436402, , 
354,3466,13466,24th St & Dolores St  , ,37.751903000000006,-122.42531100000001, , 
355,3467,13467,24th St & Dolores St  , ,37.751787,-122.425265, , 
356,3468,13468,24th St & Douglass St  , ,37.751102,-122.43836100000001, , 
357,3469,13469,24th St & Folsom St  , ,37.752559999999995,-122.41424199999999, , 
358,3470,13470,24th St & Folsom St  , ,37.752462,-122.41393300000001, , 
359,3471,13471,24th St & Guerrero St  , ,37.752045,-122.422767, , 
360,3472,13472,24th St & Guerrero St  , ,37.751911,-122.42298500000001, , 
361,3473,13473,24th St & Harrison St  , ,37.752694,-122.412054, , 
362,3474,13474,24th St & Harrison St  , ,37.752587,-122.411744, , 
363,3475,13475,24th St & Hoffman Ave  , ,37.750977,-122.440504, , 
364,3476,13476,24th St & Mission St  , ,37.752321,-122.418333, , 
365,3477,13477,24th St & Mission St  , ,37.752178,-122.41855, , 
366,3478,13478,24th St & Noe St  , ,37.751511,-122.43177299999999, , 
367,3480,13480,24th St & Potrero Ave  , ,37.752990000000004,-122.40669, , 
368,3481,13481,24th St & Sanchez St  , ,37.751645,-122.42955, , 
369,3482,13482,24th St & Sanchez St  , ,37.751511,-122.429768, , 
370,3483,13483,24th St & South Van Ness Ave  , ,37.752445,-122.416156, , 
371,3484,13484,24th St & South Van Ness Ave  , ,37.752311,-122.416373, , 
372,3485,13485,24th St & Valencia St  , ,37.752178,-122.420556, , 
373,3486,13486,24th St & Valencia St  , ,37.752062,-122.42051000000001, , 
374,3489,13489,25th Ave & Balboa St  , ,37.776419,-122.48456000000002, , 
375,3490,13490,25th Ave & Balboa St  , ,37.776187,-122.484365, , 
376,3491,13491,25th Ave & California St  , ,37.784003000000006,-122.485102, , 
377,3492,13492,25th Ave & California St  , ,37.783807,-122.48485, , 
378,3495,13495,25th Ave & Clement St  , ,37.782146999999995,-122.484975, , 
379,3496,13496,25th Ave & Clement St  , ,37.781951,-122.48471200000002, , 
380,3497,13497,25th Ave & El Camino Del Mar  , ,37.787535999999996,-122.48513899999999, , 
381,3498,13498,25th Ave & El Camino Del Mar  , ,37.787366999999996,-122.48535600000001, , 
382,3499,13499,25th Ave & Fulton St  , ,37.772689,-122.48429499999999, , 
383,3500,13500,25th Ave & Geary Blvd  , ,37.780255,-122.48483700000001, , 
384,3501,13501,25th Ave & Geary Blvd  , ,37.779925,-122.484619, , 
385,3502,13502,25th Ave & Lake St  , ,37.785868,-122.48524099999999, , 
386,3503,13503,25th Ave & Lake St  , ,37.785689,-122.48503400000001, , 
387,3504,13504,25th St & Connecticut St  , ,37.752359999999996,-122.39634, , 
388,3505,13505,25th St & Connecticut St, ,37.752241999999995,-122.39662, , 
389,3507,13507,25th St & Dakota St  , ,37.7525,-122.39483200000001, , 
390,3511,13511,25th St & Potrero Ave   , ,37.751407,-122.40668000000001, , 
391,3512,13512,25th St & Wisconsin St  , ,37.75224,-122.39831000000001, , 
392,3513,13513,25th St & Wisconsin St  , ,37.752162,-122.398293, , 
393,3514,13514,26th St & Castro St  , ,37.74815,-122.43363000000001, , 
394,3516,13516,26th St & De Haro St  , ,37.750859999999996,-122.40015, , 
395,3517,13517,26th St & De Haro St  , ,37.750753,-122.400024, , 
396,3519,13519,26th St & Mission St  , ,37.749001,-122.417818, , 
397,3520,13520,26th St & Noe St  , ,37.74827,-122.43177, , 
398,3521,13521,26th St & Noe St  , ,37.748174,-122.43163600000001, , 
399,3522,13522,26th St & Rhode Island St  , ,37.750718,-122.401124, , 
400,3523,13523,26th St & South Van Ness Ave  , ,37.749108,-122.41606499999999, , 
401,3524,13524,26th St & Wisconsin St  , ,37.75111,-122.39866, , 
402,3525,13525,29th Ave & Vicente St  , ,37.73896,-122.48611000000001, , 
403,3526,13526,30th Ave & Quintara St  , ,37.74799,-122.4878, , 
404,3527,13527,30th Ave & Quintara St  , ,37.74808,-122.487926, , 
405,3528,13528,30th Ave & Rivera St  , ,37.746359999999996,-122.4878, , 
406,3529,13529,30th Ave & Rivera St  , ,37.746159999999996,-122.48767, , 
407,3530,13530,30th Ave & Santiago St  , ,37.74451,-122.48765, , 
408,3531,13531,30th Ave & Santiago St  , ,37.74427,-122.48756000000002, , 
409,3532,13532,30th Ave & Taraval St  , ,37.742646,-122.487545, , 
410,3533,13533,30th Ave & Taraval St  , ,37.74241,-122.48743, , 
411,3534,13534,30th Ave & Ulloa St  , ,37.74077,-122.48738999999999, , 
412,3535,13535,30th St & Church St  , ,37.742159,-122.426369, , 
413,3536,13536,30th St & Church St  , ,37.74204,-122.42676000000002, , 
414,3537,13537,30th St & Dolores St  , ,37.742304,-122.424026, , 
415,3538,13538,30th St & Dolores St  , ,37.74217,-122.424457, , 
416,3540,13540,30th St & Mission St  , ,37.742408000000005,-122.42203700000002, , 
417,3541,13541,30th St & Mission St  , ,37.742309999999996,-122.42217, , 
418,3542,13542,30th St & Noe St  , ,37.74188,-122.43078999999999, , 
419,3543,13543,30th St & Sanchez St  , ,37.742020000000004,-122.4286, , 
420,3544,13544,30th St & Sanchez St  , ,37.74191,-122.42902, , 
421,3545,13545,32nd Ave & Balboa St   , ,37.77668,-122.49195, , 
422,3546,13546,32nd Ave & California St  , ,37.783419,-122.492442, , 
423,3547,13547,32nd Ave & California St  , ,37.783429,-122.492553, , 
424,3548,13548,32nd Ave & Clement St  , ,37.781995,-122.49233500000001, , 
425,3549,13549,32nd Ave & Clement St  , ,37.781802,-122.492425, , 
426,3550,13550,32nd Ave & Geary Blvd  , ,37.779939,-122.492296, , 
427,3551,13551,33rd Ave & Anza St  , ,37.777861,-122.493249, , 
428,3552,13552,33rd Ave & Anza St  , ,37.777692,-122.493077, , 
429,3553,13553,33rd Ave & Balboa St  , ,37.776032,-122.49297299999999, , 
430,3554,13554,33rd Ave & Balboa St  , ,37.775997,-122.49313300000001, , 
431,3555,13555,33rd Ave & Clement St  , ,37.781537,-122.49335400000001, , 
432,3556,13556,33rd Ave & Clement St  , ,37.781502,-122.49351499999999, , 
433,3557,13557,33rd Ave & Geary Blvd  , ,37.779815,-122.493227, , 
434,3558,13558,33rd Ave & Geary Blvd  , ,37.779815,-122.49338799999998, , 
435,3559,13559,33rd Ave & Geary Blvd  , ,37.779548,-122.49321499999999, , 
436,3560,13560,33rd Ave & Geary Blvd  , ,37.779565999999996,-122.493376, , 
437,3561,13561,36th Ave & Lincoln Way  , ,37.764557,-122.495372, , 
438,3562,13562,37th Ave & Lincoln Way  , ,37.764359999999996,-122.49662099999999, , 
439,3563,13563,39th Ave & Quintara St  , ,37.747621,-122.497424, , 
440,3564,13564,39th Ave & Rivera St  , ,37.745962,-122.497308, , 
441,3565,13565,39th Ave & Rivera St  , ,37.74596,-122.49746999999999, , 
442,3566,13566,42nd Ave & Clement St  , ,37.781087,-122.502994, , 
443,3567,13567,43rd Ave & Clement St  , ,37.781007,-122.504232, , 
444,3568,13568,43rd Ave & Point Lobos Ave  , ,37.779784,-122.504139, , 
445,3570,13570,45th Ave & Balboa St  , ,37.775242,-122.505798, , 
446,3571,13571,45th Ave & Balboa St  , ,37.775206,-122.505958, , 
447,3572,13572,45th Ave & Cabrillo St  , ,37.773573,-122.50567, , 
448,3573,13573,45th Ave & Cabrillo St  , ,37.773538,-122.505831, , 
449,3574,13574,46th Ave & Irving St  , ,37.762375,-122.506143, , 
450,3575,13575,46th Ave & Irving St  , ,37.762206,-122.505971, , 
451,3576,13576,46th Ave & Judah St  , ,37.760519,-122.50601499999999, , 
452,3577,13577,46th Ave & Judah St  , ,37.760395,-122.505901, , 
453,3578,13578,46th Ave & Kirkham St  , ,37.758655,-122.50588799999998, , 
454,3579,13579,46th Ave & Kirkham St  , ,37.758485,-122.50571599999999, , 
455,3580,13580,46th Ave & Lawton St  , ,37.756781,-122.505749, , 
456,3581,13581,46th Ave & Lawton St  , ,37.756612,-122.505577, , 
457,3582,13582,46th Ave & Lincoln Way  , ,37.764035,-122.50611, , 
458,3583,13583,46th Ave & Lincoln Way  , ,37.764053000000004,-122.50627, , 
459,3584,13584,46th Ave & Moraga St  , ,37.754925,-122.50562099999999, , 
460,3585,13585,46th Ave & Moraga St  , ,37.754756,-122.505449, , 
461,3586,13586,46th Ave & Noriega St  , ,37.752829,-122.50532199999999, , 
462,3587,13587,46th Ave & Noriega St  , ,37.752837,-122.505482, , 
463,3588,13588,46th Ave & Ortega St  , ,37.751187,-122.505366, , 
464,3589,13589,46th Ave & Ortega St  , ,37.751017,-122.50519399999999, , 
465,3590,13590,46th Ave & Pacheco St  , ,37.749331,-122.50523899999999, , 
466,3591,13591,46th Ave & Pacheco St  , ,37.749161,-122.505067, , 
467,3592,13592,46th Ave & Quintara St  , ,37.747457,-122.5051, , 
468,3593,13593,46th Ave & Quintara St  , ,37.747288,-122.504928, , 
469,3594,13594,46th Ave & Rivera St  , ,37.745591999999995,-122.50497299999999, , 
470,3595,13595,46th Ave & Rivera St  , ,37.745422999999995,-122.504801, , 
471,3596,13596,46th Ave & Santiago St  , ,37.743737,-122.504834, , 
472,3597,13597,46th Ave & Santiago St  , ,37.743567,-122.50466200000001, , 
473,3598,13598,46th Ave & Taraval St  , ,37.741854,-122.504706, , 
474,3599,13599,46th Ave & Taraval St  , ,37.741685,-122.504534, , 
475,3600,13600,46th Ave & Ulloa St  , ,37.739998,-122.504579, , 
476,3601,13601,46th Ave & Ulloa St  , ,37.739829,-122.504407, , 
477,3602,13602,46th Ave & Vicente St  , ,37.738141999999996,-122.50443999999999, , 
478,3603,13603,46th Ave & Vicente St  , ,37.737973,-122.504268, , 
479,3604,13604,46th Ave & Wawona St  , ,37.736108,-122.50414099999999, , 
480,3606,13606,47th Ave & Wawona St  , ,37.736018,-122.505366, , 
481,3608,13608,48th Ave & Point Lobos Ave  , ,37.779022999999995,-122.50941100000001, , 
482,3611,13611,Cyril Magnin St & Market St  , ,37.784162,-122.408175, , 
483,3612,13612,Cyril Magnin St & Market St  , ,37.784011,-122.40821000000001, , 
484,3613,13613,46 Addison St   , ,37.737735,-122.431009, , 
485,3614,13614,164 Addison  St   , ,37.738172,-122.43280700000001, , 
486,3615,13615,Addison St & Diamond Heights Blvd, ,37.740037,-122.43571599999999, , 
487,3616,13616,Addison  St & Digby St  , ,37.740001,-122.433609, , 
488,3617,13617,Addison  St & Farnum St  , ,37.740189,-122.43421599999999, , 
489,3618,13618,Addison  St & Farnum St  , ,37.740055,-122.43443300000001, , 
490,3619,13619,Alana Way & Executive Park Blvd, ,37.70898,-122.39421999999999, , 
491,3621,13621,Alemany Blvd & Arch St  , ,37.71163,-122.4669, , 
492,3622,13622,Alemany Blvd & Arch St  , ,37.711418,-122.46717, , 
493,3628,13628,Alemany Blvd & St Charles Ave , ,37.710359000000004,-122.469458, , 
494,3629,13629,Alemany Blvd/St Mary's Park bridge, ,37.73229,-122.42058999999999, , 
495,3630,13630,Alemany Blvd & Victoria St  , ,37.71183,-122.46507, , 
496,3631,13631,Alemany Blvd & Victoria St  , ,37.71164,-122.46491999999999, , 
497,3641,13641,Arch St & Alemany Blvd  , ,37.711659999999995,-122.46711, , 
498,3642,13642,Arguello Blvd & Balboa St  , ,37.777075,-122.45864499999999, , 
499,3643,13643,Arguello Blvd & California St , ,37.785596000000005,-122.459093, , 
500,3644,13644,Arguello Blvd & California St , ,37.78556,-122.459254, , 
501,3645,13645,Arguello Blvd & Clement St  , ,37.783071,-122.45907, , 
502,3647,13647,Arguello Blvd & Euclid Ave  , ,37.78374,-122.458956, , 
503,3648,13648,Arguello Blvd & Fulton St  , ,37.774425,-122.458301, , 
504,3649,13649,Arguello Blvd & Geary Blvd  , ,37.781428999999996,-122.458955, , 
505,3650,13650,Arguello Blvd & Geary Blvd  , ,37.781081,-122.45876000000001, , 
506,3651,13651,Arguello Blvd & Turk St  , ,37.777477000000005,-122.458519, , 
507,3652,13652,Arkansas St & 22nd St  , ,37.75745,-122.39804, , 
508,3653,13653,Arkansas St & Madera St  , ,37.75597,-122.39788999999999, , 
509,3656,13656,Ashbury St & Clifford Ter, ,37.764281,-122.44594599999999, , 
510,3657,13657,Ashbury St & Clifford Ter   , ,37.764298,-122.446095, , 
511,3659,13659,Ashbury St & Clayton St  , ,37.762978000000004,-122.446805, , 
512,3661,13661,Ashbury St & Frederick St  , ,37.767154,-122.446278, , 
513,3662,13662,Ashbury St & Haight St  , ,37.769937,-122.446851, , 
514,3663,13663,Ashbury St & Piedmont St  , ,37.765298,-122.446072, , 
515,3664,13664,Ashbury St & Piedmont St  , ,37.765146,-122.445877, , 
516,3665,13665,Ashbury St & Waller St  , ,37.769161,-122.446851, , 
517,3666,13666,Ashbury St & Waller St  , ,37.769009999999994,-122.446656, , 
518,3667,13667,Athens St & Avalon Ave   , ,37.72465,-122.4261, , 
519,3668,13668,Athens St & Brazil Ave   , ,37.72155,-122.42846000000002, , 
520,3669,13669,Athens St & Excelsior Ave   , ,37.72311,-122.42728999999999, , 
521,3670,13670,Avenue B & Gateview Ave, ,37.82695,-122.377402, , 
522,3673,13673,Avenue H & 4th St  , ,37.821938,-122.367796, , 
523,3674,13674,Avenue H & 6th St  , ,37.823625,-122.36893, , 
524,3675,13675,Avenue H & California St, ,37.819939,-122.366422, , 
525,3680,13680,Avalon Ave & La Grande Ave  , ,37.724740000000004,-122.42421999999999, , 
526,3681,13681,Avalon Ave & La Grande Ave   , ,37.724740000000004,-122.42437, , 
527,3682,13682,Avalon Ave & Peru Ave  , ,37.72508,-122.42342, , 
528,3685,13685,Bacon St & Girard St  , ,37.72744,-122.40451000000002, , 
529,3686,13686,Bacon St & Girard St  , ,37.72732,-122.4047, , 
530,3687,13687,Bacon St & Goettingen St  , ,37.72691,-122.40648, , 
531,3688,13688,Bacon St & Goettingen St  , ,37.7268,-122.40666999999999, , 
532,3689,13689,Beverly St & Garfield St  , ,37.719728,-122.47173899999999, , 
533,3690,13690,Bernal Heights Blvd & Bradford St, ,37.74183,-122.40978, , 
534,3691,13691,Bernal Heights Blvd & Powhattan Ave, ,37.74151,-122.41067, , 
535,3692,13692,Blanken Ave & Tunnel Ave   , ,37.71202,-122.40068000000001, , 
536,3693,13693,Bemis St & Addison  St   , ,37.737725,-122.42953100000001, , 
537,3694,13694,Bosworth St & Elk St  , ,37.734871000000005,-122.44006999999999, , 
538,3695,13695,Bosworth St & Diamond St  , ,37.733595,-122.43401100000001, , 
539,3696,13696,Bosworth St & Diamond St  , ,37.733488,-122.43408000000001, , 
540,3697,13697,Bosworth St & Elk St  , ,37.735005,-122.44009299999999, , 
541,3698,13698,Bosworth St & Lippard Ave  , ,37.733925,-122.43570600000001, , 
542,3699,13699,Bosworth St & Lippard Ave  , ,37.733827000000005,-122.43597, , 
543,3700,13700,Bosworth St & Marsily St  , ,37.733469,-122.42793999999999, , 
544,3701,13701,Bosworth St & Milton St  , ,37.733487,-122.429326, , 
545,3702,13702,Bosworth St & Milton St  , ,37.733318,-122.42952, , 
546,3703,13703,Bosworth St & Mission St  , ,37.733719,-122.426702, , 
547,3704,13704,Bosworth St & Rotteck St  , ,37.733211,-122.431296, , 
548,3705,13705,Lincoln Blvd & Bowley Ave  , ,37.788465,-122.48261699999999, , 
549,3706,13706,Bowley St & Lincoln Blvd  , ,37.792221999999995,-122.48118600000001, , 
550,3708,13708,Bradford St & Bernal Heights Blvd, ,37.74201,-122.4094, , 
551,3709,13709,Bradford St & Bernal Heights Blvd, ,37.74286,-122.4094, , 
552,3710,13710,Bradford St & Esmeralda Ave  , ,37.74306,-122.40932, , 
553,3712,13712,Burnett Ave & Crestline Dr   , ,37.749121,-122.444938, , 
554,3713,13713,Burnett Ave & Dawnview Way  , ,37.748077,-122.44508700000002, , 
555,3715,13715,Broad St & Capitol Ave  , ,37.713190999999995,-122.45892099999999, , 
556,3716,13716,Broad St & Capitol Ave  , ,37.713152,-122.45915900000001, , 
557,3717,13717,Broad St & Orizaba Ave  , ,37.713178000000006,-122.462331, , 
558,3718,13718,Broad St & Plymouth Ave  , ,37.713221999999995,-122.455927, , 
559,3719,13719,Broad St & Plymouth Ave  , ,37.713161,-122.45618, , 
560,3721,13721,Bridge View Dr & Scotia Ave   , ,37.731840000000005,-122.3994, , 
561,3722,13722,Bridge View Dr & Topeka Ave   , ,37.7332,-122.39769, , 
562,3723,13723,Bryant St & 4th St   , ,37.779474,-122.398068, , 
563,3724,13724,Bryant St & 5th St   , ,37.77795,-122.39995, , 
564,3725,13725,Bryant St & 6th St   , ,37.776157,-122.402231, , 
565,3726,13726,Bryant St & 7th St   , ,37.77438,-122.40449, , 
566,3727,13727,Bryant St & 8th St   , ,37.77233,-122.40708000000001, , 
567,3728,13728,Bryant St & 9th St   , ,37.77146,-122.40817, , 
568,3730,13730,Bryant St & 16th St  , ,37.76549,-122.4104, , 
569,3731,13731,Bryant St & 16th St  , ,37.7653,-122.41054, , 
570,3732,13732,Bryant St & 17th St  , ,37.76422,-122.41028, , 
571,3733,13733,Bryant St & 17th St  , ,37.76402,-122.41041000000001, , 
572,3734,13734,Bryant St & 18th St  , ,37.76187,-122.4102, , 
573,3735,13735,Bryant St & 18th St  , ,37.76167,-122.41004, , 
574,3736,13736,Bryant St & 19th St  , ,37.76058,-122.41008000000001, , 
575,3737,13737,Bryant St & 19th St  , ,37.76038,-122.40991000000001, , 
576,3738,13738,Bryant St & 20th St  , ,37.75933,-122.40993, , 
577,3739,13739,Bryant St & 20th St  , ,37.75911,-122.40966, , 
578,3740,13740,Bryant St & 21st St  , ,37.757509999999996,-122.4095, , 
579,3741,13741,Bryant St & 21st St  , ,37.7574,-122.40961000000001, , 
580,3742,13742,Bryant St & 22nd St  , ,37.756209999999996,-122.40942, , 
581,3743,13743,Bryant St & 22nd St  , ,37.755720000000004,-122.40948999999999, , 
582,3744,13744,Bryant St & 23rd St  , ,37.75431,-122.40919, , 
583,3745,13745,Bryant St & 23rd St  , ,37.75415,-122.40932, , 
584,3746,13746,Bryant St & 24th St  , ,37.752907,-122.40908600000002, , 
585,3747,13747,Bryant St & 24th St  , ,37.752728000000005,-122.409178, , 
586,3748,13748,Bryant St & 25th St  , ,37.7513,-122.40907, , 
587,3749,13749,Bryant St & 25th St  , ,37.75111,-122.40888999999999, , 
588,3750,13750,Bryant St & 26th St  , ,37.74969,-122.40891, , 
589,3751,13751,Bryant St & 26th St  , ,37.74951,-122.40873, , 
590,3752,13752,Bryant St & Alameda St  , ,37.76845,-122.41068, , 
591,3754,13754,Bryant St & Division St   , ,37.76967,-122.41045, , 
592,3756,13756,Bryant St & Mariposa St  , ,37.76314,-122.41032, , 
593,3757,13757,Bryant St & Mariposa St  , ,37.76294,-122.41016, , 
594,3758,13758,Brazil Ave & Athens St   , ,37.72162,-122.42828999999999, , 
595,3759,13759,Brazil Ave & Athens St   , ,37.72166,-122.42857, , 
596,3760,13760,Brazil Ave & Madrid St   , ,37.72314,-122.43151, , 
597,3761,13761,Brazil Ave & Mission St   , ,37.724717,-122.43465400000001, , 
598,3762,13762,Brazil Ave & Moscow St   , ,37.72122,-122.42748, , 
599,3763,13763,Brazil Ave & Moscow St   , ,37.72128,-122.42776, , 
600,3764,13764,Brazil Ave & Munich St   , ,37.7209,-122.42698999999999, , 
601,3765,13765,Brazil Ave & Naples St   , ,37.72238,-122.4299, , 
602,3766,13766,Brazil Ave & Paris St   , ,37.723958,-122.433085, , 
603,3767,13767,Brazil Ave & Prague St   , ,37.72052,-122.42616000000001, , 
604,3768,13768,228 Bay Shore Blvd  , ,37.74472,-122.40443, , 
605,3771,13771,Bay Shore Blvd & Alemany Blvd , ,37.737728999999995,-122.406997, , 
606,3772,13772,Bay Shore Blvd & Arleta Ave   , ,37.712235,-122.40261399999999, , 
607,3773,13773,Bay Shore Blvd & Augusta St  , ,37.73425,-122.40558, , 
608,3775,13775,Bay Shore Blvd & Boutwell St  , ,37.73488,-122.40588000000001, , 
609,3776,13776,Bay Shore Blvd & Campbell Ave , ,37.71481,-122.39936000000002, , 
610,3778,13778,Bay Shore Blvd & Cortland Ave , ,37.73986,-122.40677, , 
611,3779,13779,Bay Shore Blvd & Cortland Ave , ,37.73946,-122.407122, , 
612,3780,13780,Bay Shore Blvd & Hester Ave   , ,37.71497,-122.39898000000001, , 
613,3783,13783,Bay Shore Blvd & Leland Ave   , ,37.711138,-122.403783, , 
614,3788,13788,Bay Shore Blvd & Silver Ave  , ,37.733213,-122.40472, , 
615,3789,13789,Bay Shore Blvd & Silver Ave  , ,37.732963,-122.404789, , 
616,3793,13793,Bay Shore Blvd & Visitacion Ave, ,37.71062,-122.40388999999999, , 
617,3794,13794,Buchanan St & Bay St  , ,37.80343,-122.43333999999999, , 
618,3797,13797,90 Buckingham Way  , ,37.72599,-122.476873, , 
619,3798,13798,91 Buckingham Way  , ,37.725970000000004,-122.47713999999999, , 
620,3799,13799,170 Buckingham Way  , ,37.725936,-122.478889, , 
621,3800,13800,190 Buckingham Way  , ,37.72587,-122.47878999999999, , 
622,3801,13801,280 Buckingham Way  , ,37.72691,-122.48003999999999, , 
623,3802,13802,281 Buckingham Way  , ,37.72748,-122.48003500000002, , 
624,3803,13803,Buckingham Way & Winston Dr   , ,37.72803,-122.47913, , 
625,3804,13804,Bunker Rd & Field Rd  , ,37.83142,-122.52323, , 
626,3805,13805,BUNKER RD/Miwok Trail, ,37.832584000000004,-122.52724599999999, , 
627,3806,13806,BUNKER RD/Miwok Trail, ,37.832477000000004,-122.5272, , 
628,3807,13807,BUNKER RD/Rifle Range, ,37.83302,-122.50882, , 
629,3808,13808,BUNKER RD/Rifle Range, ,37.83296,-122.50872, , 
630,3809,13809,BUNKER RD/Stables, ,37.8318,-122.51495, , 
631,3810,13810,BUNKER RD/Stables, ,37.83175,-122.51538000000001, , 
632,3812,13812,Bush St & Hyde St  , ,37.78915,-122.41658000000001, , 
633,3813,13813,Bush St & Jones St  , ,37.78944,-122.41386999999999, , 
634,3814,13814,Bush St & Leavenworth St  , ,37.7893,-122.41496000000001, , 
635,3815,13815,Bush St & Montgomery St  , ,37.790924,-122.40211799999999, , 
636,3818,13818,Buena Vista Ave E & Buena Vista Ter, ,37.76773,-122.44021000000001, , 
637,3819,13819,BUENA VISTA TER & BUENA VISTA AVE E, ,37.76883,-122.43833000000001, , 
638,3820,13820,Buena Vista Ter & Roosevelt Way, ,37.76685,-122.43815, , 
639,3822,13822,California St & 4th Ave  , ,37.785353,-122.46229199999999, , 
640,3823,13823,California St & 4th Ave  , ,37.785178,-122.46257, , 
641,3824,13824,California St & 6th Ave  , ,37.785069,-122.46464099999999, , 
642,3825,13825,California St & 6th Ave  , ,37.784902,-122.46470900000001, , 
643,3826,13826,California St & 7th Ave   , ,37.784819,-122.465432, , 
644,3827,13827,California St & 8th Ave  , ,37.78463,-122.466825, , 
645,3828,13828,California St & 10th Ave  , ,37.784665000000004,-122.469159, , 
646,3830,13830,California St & 10th Ave  , ,37.784551,-122.46896299999999, , 
647,3831,13831,California St & 12th Ave  , ,37.784586,-122.470848, , 
648,3832,13832,California St & 12th Ave  , ,37.784454,-122.471103, , 
649,3833,13833,California St & 16th Ave  , ,37.784386,-122.475229, , 
650,3834,13834,California St & 16th Ave  , ,37.784253,-122.475501, , 
651,3835,13835,California St & 19th Ave  , ,37.784240999999994,-122.47844599999999, , 
652,3836,13836,California St & 19th Ave  , ,37.784109,-122.47871, , 
653,3837,13837,California St & 22nd Ave  , ,37.784096999999996,-122.48165900000001, , 
654,3838,13838,California St & 22nd Ave  , ,37.783941,-122.481893, , 
655,3839,13839,California St & 25th Ave  , ,37.78395,-122.48482, , 
656,3840,13840,California St & 25th Ave  , ,37.783808,-122.48528600000002, , 
657,3841,13841,California St & 28th Ave  , ,37.783798,-122.488074, , 
658,3842,13842,California St & 28th Ave  , ,37.783658,-122.488456, , 
659,3843,13843,California St & 30th Ave  , ,37.783671000000005,-122.49051299999999, , 
660,3844,13844,California St & 30th Ave  , ,37.783578000000006,-122.49008700000002, , 
661,3845,13845,California St & Arguello Blvd , ,37.785703000000005,-122.45928799999999, , 
662,3846,13846,California St & Arguello Blvd , ,37.785659,-122.45903600000001, , 
663,3847,13847,California St & Baker St  , ,37.787738,-122.443634, , 
664,3848,13848,California St & Baker St  , ,37.787620000000004,-122.44338400000001, , 
665,3849,13849,California St & Battery St  , ,37.793296000000005,-122.399813, , 
666,3851,13851,California St & Battery St  , ,37.793144,-122.39986999999999, , 
667,3852,13852,California St & Cherry St  , ,37.786042,-122.45683500000001, , 
668,3853,13853,California St & Cherry St  , ,37.785973999999996,-122.456329, , 
669,3855,13855,California St & Davis St  , ,37.793589000000004,-122.397462, , 
670,3857,13857,California St & Davis St  , ,37.793420000000005,-122.397749, , 
671,3858,13858,California St & Divisadero St , ,37.788087,-122.44086999999999, , 
672,3859,13859,California St & Divisadero St , ,37.787954,-122.440721, , 
673,3860,13860,California St & Drumm St  , ,37.793678,-122.396373, , 
674,3861,13861,California St & Fillmore St  , ,37.788931,-122.434151, , 
675,3862,13862,California St & Fillmore St  , ,37.788861,-122.433989, , 
676,3863,13863,California St & Front St  , ,37.793438,-122.39864299999999, , 
677,3864,13864,California St & Front St  , ,37.79327,-122.39891999999999, , 
678,3865,13865,California St & Grant Ave   , ,37.792504,-122.40595800000001, , 
679,3866,13866,California St & Grant Ave   , ,37.792379,-122.40593500000001, , 
680,3867,13867,California St & Hyde St  , ,37.791018,-122.41756000000001, , 
681,3868,13868,California St & Hyde St   , ,37.790902,-122.41753700000001, , 
682,3869,13869,California St & Jones St   , ,37.791472,-122.414121, , 
683,3870,13870,California St & Jones St   , ,37.791346999999995,-122.414098, , 
684,3871,13871,California St & Kearny St  , ,37.792718,-122.404273, , 
685,3872,13872,California St & Kearny St  , ,37.792593,-122.40425, , 
686,3873,13873,California St & Larkin St  , ,37.790865999999994,-122.41888999999999, , 
687,3874,13874,California St & Larkin St  , ,37.7907,-122.41916, , 
688,3875,13875,California St & Laurel St  , ,37.786923,-122.44995700000001, , 
689,3876,13876,California St & Laurel St  , ,37.786801000000004,-122.44998000000001, , 
690,3877,13877,California St & Leavenworth St, ,37.791284999999995,-122.41561100000001, , 
691,3878,13878,California St & Leavenworth St , ,37.791133,-122.415749, , 
692,3880,13880,California St & Mason St  , ,37.791872,-122.41098000000001, , 
693,3881,13881,California St & Mason St  , ,37.791746999999994,-122.41095700000001, , 
694,3882,13882,California St & Montgomery St , ,37.792761999999996,-122.40290800000001, , 
695,3883,13883,California St & Montgomery St , ,37.792931,-122.402622, , 
696,3884,13884,California St & Pierce St  , ,37.788517999999996,-122.43748400000001, , 
697,3885,13885,California St & Pierce St  , ,37.788455,-122.43680800000001, , 
698,3886,13886,California St & Park Presidio Blvd, ,37.784515,-122.47325, , 
699,3887,13887,California St & Park Presidio Blvd, ,37.784365,-122.47276399999998, , 
700,3888,13888,California St & Polk St  , ,37.790661,-122.42054099999999, , 
701,3889,13889,California St & Polk St  , ,37.790492,-122.420828, , 
702,3890,13890,California St & Powell St  , ,37.792068,-122.40942, , 
703,3891,13891,California St & Powell St  , ,37.791952,-122.40933999999999, , 
704,3892,13892,California St & Presidio Ave  , ,37.787265000000005,-122.44696499999999, , 
705,3893,13893,California St & Presidio Ave  , ,37.787212,-122.446931, , 
706,3894,13894,California St & Sansome St  , ,37.793145,-122.40098200000001, , 
707,3895,13895,California St & SANSOME ST, ,37.792975,-122.401269, , 
708,3896,13896,California St & Spruce St  , ,37.786462,-122.45352199999999, , 
709,3897,13897,California St & Spruce St  , ,37.786382,-122.45326999999999, , 
710,3899,13899,California St & Stockton St   , ,37.792308,-122.407552, , 
711,3900,13900,California St & Stockton St   , ,37.792184000000006,-122.407529, , 
712,3901,13901,California St & Taylor St  , ,37.791712,-122.41232099999999, , 
713,3902,13902,California St & Taylor St  , ,37.791543,-122.412608, , 
714,3904,13904,California St & Avenue C, ,37.818870000000004,-122.36903799999999, , 
715,3905,13905,California St & Avenue D  , ,37.818736,-122.3689, , 
716,3909,13909,Carl St & Cole St  , ,37.765863,-122.449804, , 
717,3911,13911,Carl St & Cole St  , ,37.765745,-122.450131, , 
718,3912,13912,Carl St & Hillway Ave  , ,37.765003,-122.45656100000001, , 
719,3913,13913,Carl St & Hillway Ave  , ,37.764932,-122.45651200000002, , 
720,3914,13914,Carl St & Stanyan St  , ,37.765495,-122.45258999999999, , 
721,3915,13915,Carl St & Stanyan St  , ,37.765371,-122.452928, , 
722,3920,13920,Cashmere St & Hudson Ave  , ,37.73573,-122.38354, , 
723,3921,13921,Cashmere St & La Salle Ave  , ,37.73585,-122.38695, , 
724,3922,13922,Cashmere St & Whitney Young Cir, ,37.7366,-122.38588, , 
725,3923,13923,Cabrillo St & 6th Ave  , ,37.775451000000004,-122.463975, , 
726,3924,13924,Cabrillo St & 47th Ave  , ,37.773421,-122.50776699999999, , 
727,3925,13925,Cabrillo St & 47th Ave  , ,37.773286999999996,-122.507985, , 
728,3927,13927,Cabrillo St & La Playa St, ,37.773527,-122.510002, , 
729,3930,13930,Cesar Chavez St & Florida St  , ,37.74823,-122.40976, , 
730,3931,13931,Cesar Chavez St & Folsom St  , ,37.74834,-122.41398000000001, , 
731,3932,13932,Cesar Chavez St & Folsom St  , ,37.74815,-122.41382, , 
732,3934,13934,Cesar Chavez St & Harrison St , ,37.7482,-122.41163, , 
733,3935,13935,Cesar Chavez St & Mission St  , ,37.748234000000004,-122.418369, , 
734,3936,13936,Cesar Chavez St & South Van Ness Ave, ,37.748305,-122.415756, , 
735,3940,13940,Chestnut St & Divisadero St  , ,37.800051,-122.442746, , 
736,3941,13941,Chestnut St & Fillmore St  , ,37.800845,-122.436245, , 
737,3942,13942,Chestnut St & Fillmore St  , ,37.800738,-122.436371, , 
738,3947,13947,Chestnut St & Laguna St  , ,37.801486,-122.431475, , 
739,3948,13948,Chestnut St & Laguna St  , ,37.80137,-122.43140600000001, , 
740,3952,13952,Chestnut St & Pierce St  , ,37.800506,-122.439352, , 
741,3953,13953,Chestnut St & Pierce St  , ,37.800309999999996,-122.43961599999999, , 
742,3956,13956,Chestnut St & Van Ness Ave  , ,37.802333000000004,-122.424871, , 
743,3957,13957,Chestnut St & Van Ness Ave  , ,37.802199,-122.424894, , 
744,3958,13958,Chestnut St & Webster St  , ,37.801103000000005,-122.434502, , 
745,3959,13959,Chestnut St & Webster St  , ,37.800951,-122.434697, , 
746,3960,13960,Chicago Way & Cordova Ave   , ,37.708870000000005,-122.43422199999999, , 
747,3961,13961,Chicago Way & Cordova Ave   , ,37.708968,-122.43433600000002, , 
748,3962,13962,Chicago Way & Naylor St   , ,37.709834,-122.43243500000001, , 
749,3963,13963,Chicago Way & Naylor St   , ,37.709628,-122.43250400000001, , 
750,3964,13964,Chicago Way & South Hill Blvd  , ,37.710565,-122.431381, , 
751,3965,13965,Chenery St & 30th St  , ,37.742020000000004,-122.42575, , 
752,3966,13966,Chenery St & 30th St  , ,37.74191,-122.42582, , 
753,3967,13967,Chenery St & Castro St  , ,37.7346,-122.43233000000001, , 
754,3968,13968,Chenery St & Fairmount St  , ,37.7389,-122.42578999999999, , 
755,3969,13969,Chenery St & Mateo St   , ,37.73646,-122.42894, , 
756,3970,13970,Chenery St & Mateo St   , ,37.73633,-122.429, , 
757,3971,13971,Chenery St & Miguel St   , ,37.737140000000004,-122.42775, , 
758,3972,13972,Chenery St & Miguel St   , ,37.737109999999994,-122.42792, , 
759,3973,13973,Chenery St & Natick St  , ,37.73458,-122.43191000000002, , 
760,3974,13974,Chenery St & Randall St  , ,37.739929,-122.425692, , 
761,3975,13975,Chenery St & Randall St  , ,37.739625,-122.425498, , 
762,3976,13976,Chenery St & Roanoke St   , ,37.73563,-122.4302, , 
763,3977,13977,Chenery St & Roanoke St   , ,37.735479999999995,-122.43028000000001, , 
764,3981,13981,Chumasero Dr & Font Blvd   , ,37.715007,-122.47313500000001, , 
765,3984,13984,Church St & 16th St  , ,37.764621000000005,-122.428722, , 
766,3985,13985,Church St & 16th St  , ,37.764382,-122.42860900000001, , 
767,3987,13987,Church St & 18th St  , ,37.761466999999996,-122.428416, , 
768,3994,13994,Church St & 22nd St  , ,37.754785,-122.427659, , 
769,3995,13995,Church St & 24th St  , ,37.7518,-122.427497, , 
770,3996,13996,Church St & 24th St  , ,37.751591,-122.42735, , 
771,3997,13997,Church St & 27th St  , ,37.746984999999995,-122.427073, , 
772,3998,13998,Church St & 27th St  , ,37.746781,-122.42689299999999, , 
773,3999,13999,Church St & 29th St  , ,37.743587,-122.426585, , 
774,4000,14000,Church St & 30th St   , ,37.742222,-122.42645900000001, , 
775,4002,14002,Church St & Clipper St  , ,37.749388,-122.42728899999999, , 
776,4003,14003,Church St & Clipper St  , ,37.749182,-122.427122, , 
777,4004,14004,Church St & Day St  , ,37.742810999999996,-122.426654, , 
778,4005,14005,Church St & Duboce Ave   , ,37.769498999999996,-122.42916699999999, , 
779,4006,14006,Church St & Duboce Ave  , ,37.769302,-122.42908700000001, , 
780,4009,14009,Church St & Market St  , ,37.767777,-122.428881, , 
781,4015,14015,Clay St & Drumm St  , ,37.795435999999995,-122.396819, , 
782,4016,14016,Clay St & Franklin St  , ,37.791907,-122.42446299999999, , 
783,4017,14017,Clay St & Front St  , ,37.795116,-122.399101, , 
784,4018,14018,Clay St & Grant Ave  , ,37.794263,-122.405971, , 
785,4019,14019,Clay St & Hyde St  , ,37.792756,-122.417899, , 
786,4020,14020,Clay St & Jones St  , ,37.793172999999996,-122.414616, , 
787,4021,14021,Clay St & Kearny St  , ,37.794477,-122.40441100000001, , 
788,4022,14022,Clay St & Larkin St  , ,37.792526,-122.41958899999999, , 
789,4023,14023,Clay St & Leavenworth St  , ,37.792959,-122.416304, , 
790,4024,14024,Clay St & Mason St  , ,37.793653000000006,-122.410823, , 
791,4025,14025,Clay St & Montgomery St  , ,37.794682,-122.40276999999999, , 
792,4026,14026,Clay St & Polk St  , ,37.792357,-122.42101000000001, , 
793,4027,14027,Clay St & Powell St  , ,37.793826,-122.40959099999999, , 
794,4028,14028,Clay St & Sansome St  , ,37.79484,-122.40154299999999, , 
795,4029,14029,Clay St & Stockton St  , ,37.794082,-122.40756100000002, , 
796,4030,14030,Clay St & Taylor St  , ,37.793363,-122.41274399999999, , 
797,4031,14031,Clay St & Van Ness Ave  , ,37.792106,-122.422913, , 
798,4032,14032,Clarendon Ave & Clarendon Woods S, ,37.751709999999996,-122.45839, , 
799,4033,14033,Clarendon Ave & Galewood Circle, ,37.753074,-122.455858, , 
800,4035,14035,Clarendon Ave & Olympia Way  , ,37.751628000000004,-122.45617800000001, , 
801,4037,14037,Clarendon Ave & Panorama Dr  , ,37.753679999999996,-122.455514, , 
802,4039,14039,Clement St & 2nd Ave  , ,37.78309,-122.45982, , 
803,4040,14040,Clement St & 4th Ave  , ,37.78309,-122.46257, , 
804,4041,14041,Clement St & 4th Ave  , ,37.782990000000005,-122.46195, , 
805,4042,14042,Clement St & 6th Ave  , ,37.783,-122.46479, , 
806,4043,14043,Clement St & 6th Ave  , ,37.782856,-122.464331, , 
807,4044,14044,Clement St & 8th Ave  , ,37.782798,-122.46615800000001, , 
808,4045,14045,Clement St & 10th Ave  , ,37.7828,-122.469, , 
809,4046,14046,Clement St & 10th Ave  , ,37.7827,-122.46837, , 
810,4047,14047,Clement St & 12th Ave  , ,37.7827,-122.47116000000001, , 
811,4048,14048,Clement St & 12th Ave  , ,37.782579999999996,-122.47097, , 
812,4069,14069,Clement St & Legion Of Honor Dr, ,37.781644,-122.49439699999999, , 
813,4070,14070,Clayton St & Twin Peaks Blvd  , ,37.760863,-122.44648500000001, , 
814,4071,14071,Clipper St & Diamond Heights Blvd, ,37.74689,-122.44396, , 
815,4072,14072,Clipper St & Portola Dr, ,37.7467,-122.445, , 
816,4073,14073,Clayton St & Carl St  , ,37.766288,-122.447779, , 
817,4074,14074,Clayton St & Carl St  , ,37.766154,-122.44793999999999, , 
818,4075,14075,Clayton St & Corbett Ave   , ,37.758793,-122.445935, , 
819,4076,14076,Clayton St & Corbett Ave  , ,37.758668,-122.445866, , 
820,4077,14077,Clayton St & Carmel St  , ,37.760944,-122.44633600000002, , 
821,4078,14078,Clayton St & Frederick St  , ,37.766940000000005,-122.44791699999999, , 
822,4079,14079,Clayton St & Market St  , ,37.758383,-122.444479, , 
823,4080,14080,Clayton St & Market St   , ,37.758221999999996,-122.444319, , 
824,4081,14081,Clayton St & Parnassus Ave  , ,37.765405,-122.447608, , 
825,4082,14082,Clayton St & Parnassus Ave  , ,37.765226,-122.44775700000001, , 
826,4087,14087,COIT TOWER, ,37.802659999999996,-122.40579, , 
827,4088,14088,Cole St & 17th St  , ,37.761711,-122.44921200000002, , 
828,4089,14089,Cole St & Alma St  , ,37.763263,-122.449533, , 
829,4090,14090,Cole St & Alma St  , ,37.76313,-122.44938, , 
830,4091,14091,Cole St & Carl St  , ,37.76594,-122.44991100000001, , 
831,4092,14092,Cole St & Carl St  , ,37.76556,-122.44996, , 
832,4093,14093,Cole St & Carmel St  , ,37.760926,-122.44905200000001, , 
833,4094,14094,Cole St & Frederick St  , ,37.76683,-122.4502, , 
834,4095,14095,Cole St & Haight St  , ,37.769456,-122.45061000000001, , 
835,4096,14096,Cole St & Haight St  , ,37.769447,-122.450771, , 
836,4097,14097,Cole St & Parnassus Ave  , ,37.76477,-122.44971000000001, , 
837,4098,14098,Cole St & Parnassus Ave  , ,37.76462,-122.44978, , 
838,4099,14099,Cole St & Waller St  , ,37.768528,-122.450427, , 
839,4100,14100,Columbus Ave & Bay St  , ,37.80551,-122.41783999999998, , 
840,4101,14101,Columbus Ave & Broadway   , ,37.798123,-122.406897, , 
841,4102,14102,Columbus Ave & Broadway   , ,37.797626,-122.406465, , 
842,4103,14103,Columbus Ave & Chestnut St   , ,37.803794,-122.415136, , 
843,4104,14104,Columbus Ave & Chestnut St  , ,37.80341,-122.41458600000001, , 
844,4105,14105,Columbus Ave & Filbert St   , ,37.801188,-122.41160500000001, , 
845,4106,14106,Columbus Ave & Francisco St   , ,37.804517,-122.41616699999999, , 
846,4107,14107,Columbus Ave & Francisco St  , ,37.804204999999996,-122.415973, , 
847,4108,14108,Columbus Ave & Green St   , ,37.799386,-122.408723, , 
848,4110,14110,Columbus Ave & Jackson St, ,37.79626,-122.40442, , 
849,4111,14111,Columbus Ave & Kearny St   , ,37.797319,-122.40574199999999, , 
850,4113,14113,Columbus Ave & Lombard St  , ,37.802687,-122.413531, , 
851,4114,14114,Columbus Ave & Lombard St  , ,37.802597999999996,-122.413646, , 
852,4115,14115,Columbus Ave & Mason St   , ,37.802089,-122.41266, , 
853,4116,14116,Columbus Ave & North Point St , ,37.80549,-122.41758899999999, , 
854,4117,14117,Columbus Ave & Stockton St   , ,37.79911,-122.408602, , 
855,4118,14118,Columbus Ave & Taylor St   , ,37.803284999999995,-122.414643, , 
856,4119,14119,Columbus Ave & Union St  , ,37.8005,-122.41035600000001, , 
857,4120,14120,Columbus Ave & Union St  , ,37.800384,-122.410505, , 
858,4121,14121,Columbus Ave & Washington St   , ,37.79591,-122.403682, , 
859,4122,14122,1095 CONNECTICUT ST, ,37.753902000000004,-122.397341, , 
860,4123,14123,Connecticut St & 17th St  , ,37.76498,-122.39766100000001, , 
861,4124,14124,Connecticut St & 17th St  , ,37.764749,-122.39778500000001, , 
862,4125,14125,Connecticut St & 18th St  , ,37.762614,-122.39756899999999, , 
863,4126,14126,Connecticut St & 18th St  , ,37.76243,-122.39741000000001, , 
864,4127,14127,Connecticut St & 19th St  , ,37.76115,-122.39733000000001, , 
865,4128,14128,Connecticut St & 25th St  , ,37.752563,-122.396402, , 
866,4129,14129,Connecticut St & 26th St  , ,37.75143,-122.396345, , 
867,4130,14130,Connecticut St & 26th St  , ,37.751269,-122.39651699999999, , 
868,4131,14131,Connecticut St & Cesar Chavez St , ,37.750002,-122.39622, , 
869,4132,14132,Connecticut St & Cesar Chavez St , ,37.749868,-122.396381, , 
870,4133,14133,CONZELMAN RD/Kirby Cove, ,37.82952,-122.48402, , 
871,4134,14134,CONZELMAN RD/Kirby Cove, ,37.829440000000005,-122.48353999999999, , 
872,4135,14135,Conzelman Rd/GGNRA entrance sign, ,37.833090000000006,-122.48355, , 
873,4137,14137,Cordova Ave & Prague St  , ,37.710182,-122.434874, , 
874,4138,14138,Cordova Ave & Winding Way  , ,37.709638,-122.434828, , 
875,4139,14139,Cordova Ave & Winding Way  , ,37.709503999999995,-122.43458799999999, , 
876,4142,14142,Cortland Ave & Andover St  , ,37.739090000000004,-122.41638999999999, , 
877,4143,14143,Cortland Ave & Andover St  , ,37.73904,-122.41658000000001, , 
878,4145,14145,Cortland Ave & Bocana St  , ,37.7393,-122.41846000000001, , 
879,4146,14146,Cortland Ave & Bocana St  , ,37.739309999999996,-122.41872, , 
880,4147,14147,Cortland Ave & Bradford St   , ,37.739791,-122.409746, , 
881,4148,14148,Cortland Ave & Bayshore Blvd , ,37.739567,-122.407031, , 
882,4149,14149,Cortland Ave & Elsie St   , ,37.73992,-122.41996999999999, , 
883,4150,14150,Cortland Ave & Elsie St   , ,37.7397,-122.41968999999999, , 
884,4151,14151,Cortland Ave & Ellsworth St  , ,37.73892,-122.41455, , 
885,4152,14152,Cortland Ave & Ellsworth St  , ,37.738828999999996,-122.414615, , 
886,4153,14153,Cortland Ave & Folsom St  , ,37.739000000000004,-122.41366000000001, , 
887,4154,14154,Cortland Ave & Folsom St  , ,37.73892,-122.41343, , 
888,4155,14155,Cortland Ave & Hilton St  , ,37.739692,-122.40781000000001, , 
889,4156,14156,Cortland Ave & Mission St   , ,37.741009999999996,-122.42267, , 
890,4157,14157,Cortland Ave & Mission St   , ,37.74085,-122.42251, , 
891,4158,14158,Cortland Ave & Prentiss St  , ,37.739779999999996,-122.41198999999999, , 
892,4159,14159,Cortland Ave & Prentiss St  , ,37.73957,-122.41211000000001, , 
893,4160,14160,Cortland Ave & Prospect Ave   , ,37.740294,-122.42090400000001, , 
894,4161,14161,Cortland Ave & Prospect Ave   , ,37.7402,-122.42093, , 
895,4162,14162,210 Corbett Ave   , ,37.7618,-122.44284099999999, , 
896,4163,14163,211 Corbett Ave   , ,37.761648,-122.442944, , 
897,4164,14164,320 Corbett Ave  , ,37.759926,-122.445327, , 
898,4165,14165,341 Corbett Ave  , ,37.759908,-122.445075, , 
899,4166,14166,539 Corbett Ave   , ,37.757498999999996,-122.444147, , 
900,4167,14167,795 Corbett Ave, ,37.754118,-122.443013, , 
901,4168,14168,800 Corbett Ave, ,37.75399,-122.443, , 
902,4169,14169,925 Corbett Ave   , ,37.752083,-122.44341399999999, , 
903,4170,14170,956 Corbett Ave   , ,37.751682,-122.443712, , 
904,4171,14171,Corbett Ave & Clayton St   , ,37.75894,-122.44613999999999, , 
905,4172,14172,Corbett Ave & Clayton St  , ,37.758659,-122.4459, , 
906,4173,14173,Corbett Ave & Cuesta Ct, ,37.75085,-122.44396, , 
907,4174,14174,Corbett Ave & Danvers St   , ,37.761202000000004,-122.44404399999999, , 
908,4175,14175,Corbett Ave & Danvers St   , ,37.761327,-122.444078, , 
909,4176,14176,Corbett Ave & Douglass St  , ,37.76208,-122.43961999999999, , 
910,4177,14177,Corbett Ave & Graystone Ter , ,37.756409999999995,-122.44328, , 
911,4178,14178,Corbett Ave & Graystone Ter  , ,37.756446000000004,-122.443425, , 
912,4179,14179,Corbett Ave & Hattie St  , ,37.761711,-122.441122, , 
913,4180,14180,Corbett Ave & Hattie St  , ,37.76161,-122.44112, , 
914,4181,14181,Corbett Ave & Hopkins Ave   , ,37.752869,-122.44381499999999, , 
915,4182,14182,Corbett Ave & Iron Aly   , ,37.75783,-122.44474299999999, , 
916,4183,14183,Corbett Ave & Mars St, ,37.760542,-122.44425, , 
917,4184,14184,Corbett Ave & Mars St, ,37.76048,-122.444479, , 
918,4185,14185,Corbett Ave & Ord St  , ,37.761897999999995,-122.44021599999999, , 
919,4186,14186,Corbett Ave & Romain St   , ,37.755483,-122.44279499999999, , 
920,4187,14187,Corbett Ave & Romain St   , ,37.755349,-122.44283, , 
921,4188,14188,Crescent Ave & Agnon Ave  , ,37.735074,-122.42182199999999, , 
922,4189,14189,Crescent Ave & Andover St  , ,37.734966,-122.416725, , 
923,4190,14190,Crescent Ave & Andover St  , ,37.734832,-122.41694199999999, , 
924,4191,14191,Crescent Ave & Arnold Ave  , ,37.734966,-122.419726, , 
925,4192,14192,Crescent Ave & College Ave  , ,37.735253,-122.42405600000001, , 
926,4195,14195,Crescent Ave & Folsom St  , ,37.734804,-122.41358600000001, , 
927,4196,14196,Crescent Ave & Folsom St  , ,37.73467,-122.413804, , 
928,4197,14197,Crescent Ave & Leese St  , ,37.735244,-122.42256699999999, , 
929,4198,14198,Crescent Ave & Mission St  , ,37.735423,-122.424457, , 
930,4199,14199,Crescent Ave & Murray St  , ,37.735136,-122.42012700000001, , 
931,4200,14200,Crescent Ave & Porter St  , ,37.734895,-122.41821399999999, , 
932,4201,14201,Crescent Ave & Putnam St   , ,37.735009000000005,-122.411169, , 
933,4202,14202,Crescent Ave & Putnam St  , ,37.734911,-122.41128300000001, , 
934,4203,14203,Crescent Ave & Roscoe St  , ,37.735054999999996,-122.418626, , 
935,4204,14204,Carmel St & Belvedere St  , ,37.76092,-122.447631, , 
936,4205,14205,Carmel St & Twin Peaks Blvd, ,37.760934999999996,-122.446634, , 
937,4207,14207,Crespi Dr & Varela Ave, ,37.7201,-122.47594, , 
938,4209,14209,40 CRESTLINE DR, ,37.750388,-122.446577, , 
939,4210,14210,74 Crestline Dr  , ,37.751762,-122.446198, , 
940,4211,14211,Fulton St & 33rd Ave  , ,37.77223,-122.49318000000001, , 
941,4212,14212,Fulton St & 33rd Ave  , ,37.7721,-122.49288, , 
942,4213,14213,Fulton St & 36th Ave  , ,37.772079999999995,-122.49633999999999, , 
943,4215,14215,Fulton St & 37th Ave  , ,37.77192,-122.49678999999999, , 
944,4218,14218,Fulton St & 40th Ave  , ,37.77179,-122.49991000000001, , 
945,4221,14221,Fulton St & 46th Ave  , ,37.77159,-122.50703999999999, , 
946,4222,14222,Fulton St & 46th Ave  , ,37.77148,-122.50631000000001, , 
947,4223,14223,Fulton St & Arguello Blvd  , ,37.774353999999995,-122.45841599999999, , 
948,4224,14224,Fulton St & Arguello Blvd  , ,37.774282,-122.458003, , 
949,4225,14225,Fulton St & Clayton St  , ,37.775407,-122.449774, , 
950,4226,14226,Fulton St & Clayton St  , ,37.77537,-122.44928999999999, , 
951,4227,14227,Fulton St & Great Hwy  , ,37.771421000000004,-122.510792, , 
952,4228,14228,Fulton St & La Playa St  , ,37.77134,-122.50939, , 
953,4229,14229,Fulton St & Masonic Ave  , ,37.775844,-122.446404, , 
954,4230,14230,Fulton St & Masonic Ave  , ,37.775773,-122.446289, , 
955,4231,14231,Fulton St & Park Presidio Blvd, ,37.77319,-122.47218000000001, , 
956,4232,14232,Fulton St & Park Presidio Blvd, ,37.773067,-122.471699, , 
957,4233,14233,Fulton St & Parker Ave  , ,37.775014,-122.452868, , 
958,4234,14234,Fulton St & Shrader St  , ,37.77499,-122.45238, , 
959,4235,14235,Fulton St & Stanyan St, ,37.774756,-122.45451899999999, , 
960,4236,14236,Fulton St & Stanyan StW, ,37.774772999999996,-122.45473700000001, , 
961,4238,14238,Fowler Ave & Portola Dr   , ,37.744355999999996,-122.45323300000001, , 
962,4242,14242,Golden Gate Ave & Polk St  , ,37.78123,-122.41833000000001, , 
963,4243,14243,Golden Gate Ave & Van Ness Ave, ,37.78095,-122.42066000000001, , 
964,4245,14245,Garfield St & Beverly St  , ,37.719719,-122.47153300000001, , 
965,4246,14246,Garfield St & Bright St  , ,37.719988,-122.46345900000001, , 
966,4247,14247,Garfield St & Bright St  , ,37.719791,-122.463642, , 
967,4248,14248,Garfield St & Byxbee St  , ,37.719737,-122.46973500000001, , 
968,4253,14253,Garfield St & Vernon St  , ,37.719746,-122.467937, , 
969,4254,14254,Garfield St & Victoria St  , ,37.719613,-122.465452, , 
970,4255,14255,Geary Blvd & 3rd Ave  , ,37.781277,-122.46093799999998, , 
971,4256,14256,Geary Blvd & 3rd Ave  , ,37.781045,-122.461156, , 
972,4257,14257,Geary Blvd & 6th Ave  , ,37.781134,-122.46415900000001, , 
973,4258,14258,Geary Blvd & 6th Ave  , ,37.780902000000005,-122.464377, , 
974,4259,14259,Geary Blvd & 9th Ave  , ,37.780982,-122.46764399999999, , 
975,4260,14260,Geary Blvd & 9th Ave  , ,37.780777,-122.467323, , 
976,4261,14261,Geary Blvd & 12th Ave  , ,37.780839,-122.470601, , 
977,4262,14262,Geary Blvd & 12th Ave  , ,37.780607,-122.47081899999999, , 
978,4263,14263,Geary Blvd & 17th Ave  , ,37.780597,-122.476045, , 
979,4264,14264,Geary Blvd & 17th Ave  , ,37.780365,-122.47626299999999, , 
980,4265,14265,Geary Blvd & 20th Ave  , ,37.780453,-122.479266, , 
981,4266,14266,Geary Blvd & 20th Ave  , ,37.780221000000004,-122.47948400000001, , 
982,4267,14267,Geary Blvd & 22nd Ave  , ,37.780346,-122.481398, , 
983,4268,14268,Geary Blvd & 23rd Ave  , ,37.780078,-122.482693, , 
984,4269,14269,Geary Blvd & 25th Ave  , ,37.78022,-122.48461, , 
985,4270,14270,Geary Blvd & 25th Ave  , ,37.779979,-122.484825, , 
986,4271,14271,Geary Blvd & 28th Ave  , ,37.780004999999996,-122.487806, , 
987,4272,14272,Geary Blvd & 28th Ave  , ,37.779862,-122.488046, , 
988,4273,14273,Geary Blvd & 30th Ave  , ,37.779959000000005,-122.489972, , 
989,4274,14274,Geary Blvd & 30th Ave  , ,37.779727,-122.49018999999998, , 
990,4275,14275,Geary Blvd & 32nd Ave  , ,37.779610999999996,-122.49194299999999, , 
991,4277,14277,Geary Blvd & 33rd Ave  , ,37.779734999999995,-122.49311200000001, , 
992,4278,14278,Geary Blvd & 33rd Ave  , ,37.779798,-122.493445, , 
993,4279,14279,Geary Blvd & 33rd Ave  , ,37.779574,-122.493399, , 
994,4280,14280,Geary Blvd & 36th Ave  , ,37.779671,-122.496402, , 
995,4281,14281,Geary Blvd & 36th Ave  , ,37.779439,-122.49662, , 
996,4282,14282,Geary Blvd & 39th Ave  , ,37.779472999999996,-122.500677, , 
997,4283,14283,Geary Blvd & 39th Ave  , ,37.779286,-122.499829, , 
998,4285,14285,Geary Blvd & 42nd Ave  , ,37.779151,-122.502775, , 
999,4286,14286,Geary Blvd & 45th Ave  , ,37.779043,-122.50625900000001, , 
1000,4288,14288,Geary Blvd & Arguello Blvd  , ,37.781153,-122.458692, , 
1001,4289,14289,Geary Blvd & Baker St  , ,37.782973,-122.44296499999999, , 
1002,4290,14290,Geary Blvd & Collins St  , ,37.782242,-122.449992, , 
1003,4291,14291,Geary Blvd & Collins St  , ,37.782028000000004,-122.44991100000001, , 
1004,4292,14292,Geary Blvd & Commonwealth St  , ,37.781528,-122.45567700000001, , 
1005,4293,14293,Geary Blvd & Divisadero St  , ,37.783428,-122.43936599999999, , 
1006,4294,14294,Geary Blvd & Divisadero St  , ,37.783178,-122.439572, , 
1007,4295,14295,Geary Blvd & Fillmore St  , ,37.784391,-122.43305, , 
1008,4298,14298,Geary Blvd & Gough St  , ,37.785434,-122.425082, , 
1009,4300,14300,Geary St & Jones St, ,37.786769,-122.41333200000001, , 
1010,4301,14301,Geary St & Kearny St, ,37.787997,-122.40365600000001, , 
1011,4302,14302,Geary St & Larkin St, ,37.786137,-122.41825, , 
1012,4303,14303,Geary St & Leavenworth St, ,37.786556,-122.414971, , 
1013,4304,14304,Geary Blvd & Laguna St  , ,37.785033,-122.427811, , 
1014,4305,14305,Geary Blvd & Laguna St  , ,37.784853999999996,-122.428155, , 
1015,4307,14307,Castro St & 14th St  , ,37.76761,-122.43558, , 
1016,4308,14308,Castro St & 14th St  , ,37.76742,-122.43571000000001, , 
1017,4309,14309,Castro St & 15th St  , ,37.76583,-122.43557, , 
1018,4310,14310,Castro St & 15th St  , ,37.765609999999995,-122.43538000000001, , 
1019,4311,14311,Castro St & 16th St  , ,37.764164,-122.435254, , 
1020,4312,14312,Castro St & 16th St  , ,37.76427,-122.43543999999999, , 
1021,4313,14313,Castro St & 17th St  , ,37.762370000000004,-122.43508, , 
1022,4314,14314,Castro St & 18th St  , ,37.760836,-122.43493400000001, , 
1023,4315,14315,Castro St & 18th St  , ,37.760863,-122.435048, , 
1024,4316,14316,Castro St & 19th St  , ,37.75939,-122.43491000000002, , 
1025,4317,14317,Castro St & 19th St  , ,37.759159999999994,-122.43478999999999, , 
1026,4318,14318,Castro St & 20th St  , ,37.75778,-122.43477, , 
1027,4319,14319,Castro St & 20th St  , ,37.757632,-122.43463600000001, , 
1028,4320,14320,Castro St & 21st St   , ,37.755955,-122.43446499999999, , 
1029,4321,14321,Castro St & 21st St   , ,37.756098,-122.434625, , 
1030,4322,14322,Castro St & 22nd St  , ,37.75464,-122.43448000000001, , 
1031,4323,14323,Castro St & 22nd St  , ,37.75441,-122.43431000000001, , 
1032,4324,14324,Castro St & 23rd St   , ,37.752779,-122.434156, , 
1033,4325,14325,Castro St & 23rd St   , ,37.752895,-122.434316, , 
1034,4326,14326,Castro St & 24th St  , ,37.7512,-122.43401000000001, , 
1035,4327,14327,Castro St & 24th St  , ,37.751315000000005,-122.43411, , 
1036,4328,14328,Castro St & 25th St  , ,37.74981,-122.43404, , 
1037,4329,14329,Castro St & 25th St  , ,37.7496,-122.43383, , 
1038,4330,14330,Castro St & Duboce Ave  , ,37.76918,-122.43596000000001, , 
1039,4331,14331,Castro St & Duboce Ave  , ,37.76895,-122.43571000000001, , 
1040,4332,14332,Castro St & Elizabeth St   , ,37.751886,-122.434053, , 
1041,4333,14333,Castro St & Elizabeth St   , ,37.752083,-122.434248, , 
1042,4334,14334,Castro St & Market St  , ,37.762397,-122.435266, , 
1043,4335,14335,City View Way & Knollview Way , ,37.748898,-122.45137700000001, , 
1044,4336,14336,Curtis St & Prague St   , ,37.710209000000006,-122.437955, , 
1045,4337,14337,Cargo Way & 3rd St  , ,37.74606,-122.38695, , 
1046,4338,14338,Cargo Way & 3rd St  , ,37.74577,-122.38665, , 
1047,4341,14341,Daly City Bart Station, ,37.705764,-122.469273, , 
1048,4342,14342,14 Dakota St  , ,37.75376,-122.39576000000001, , 
1049,4343,14343,101 Dakota St   , ,37.75374,-122.39565, , 
1050,4345,14345,Dakota St & 25th St  , ,37.75268,-122.39468000000001, , 
1051,4346,14346,Davis St & California St  , ,37.79363,-122.3977, , 
1052,4347,14347,Davis St & Pine St   , ,37.792608,-122.39753200000001, , 
1053,4350,14350,De Haro St & 16th St  , ,37.766056,-122.40163000000001, , 
1054,4351,14351,De Haro St & 17th St  , ,37.764762,-122.40151599999999, , 
1055,4352,14352,De Haro St & 18th St  , ,37.762209999999996,-122.401243, , 
1056,4353,14353,De Haro St & 19th St  , ,37.760934000000006,-122.401117, , 
1057,4354,14354,De Haro St & 20th St  , ,37.759667,-122.401026, , 
1058,4355,14355,De Haro St & 22nd St  , ,37.757437,-122.40082199999999, , 
1059,4356,14356,De Haro St & 23rd St  , ,37.754884999999994,-122.400571, , 
1060,4357,14357,De Haro St & Mariposa St  , ,37.763504,-122.40136799999999, , 
1061,4358,14358,De Haro St & Southern Heights Ave, ,37.758016999999995,-122.40086699999999, , 
1062,4359,14359,5157 Diamond Heights Blvd   , ,37.74693,-122.4402, , 
1063,4360,14360,Diamond Heights Blvd & Addison St, ,37.740198,-122.43576200000001, , 
1064,4361,14361,Diamond Heights Blvd & Berkeley, ,37.73867,-122.43668000000001, , 
1065,4362,14362,Diamond Heights Blvd & Berkeley Way, ,37.7386,-122.4369, , 
1066,4363,14363,Diamond Heights Blvd & Diamond St, ,37.74185,-122.43566000000001, , 
1067,4364,14364,Diamond Heights Blvd & Diamond St, ,37.741696999999995,-122.435773, , 
1068,4366,14366,Diamond Heights Blvd & Duncan St , ,37.745239,-122.439852, , 
1069,4367,14367,Diamond Heights Blvd & Gold Mine Dr, ,37.743629999999996,-122.43751, , 
1070,4368,14368,Diamond Heights Blvd & Gold Mine Dr, ,37.74029,-122.43588000000001, , 
1071,4369,14369,Diamond Heights Blvd & Gold Mine Dr, ,37.743590000000005,-122.43786000000001, , 
1072,4370,14370,Diamond St & 24th St  , ,37.751259999999995,-122.43638, , 
1073,4371,14371,Diamond St & 24th St  , ,37.751075,-122.436219, , 
1074,4372,14372,Diamond St & 25th St  , ,37.74965,-122.43621, , 
1075,4373,14373,Diamond St & 25th St  , ,37.749486,-122.43605900000001, , 
1076,4374,14374,Diamond St & 26th St  , ,37.747889,-122.43591, , 
1077,4375,14375,Diamond St & 26th St  , ,37.747853000000006,-122.43607, , 
1078,4376,14376,Diamond St & 27th St  , ,37.746292,-122.43576100000001, , 
1079,4377,14377,Diamond St & 27th St  , ,37.746256,-122.43592199999999, , 
1080,4378,14378,Diamond St & 28th St  , ,37.744686,-122.435601, , 
1081,4379,14379,Diamond St & 28th St  , ,37.74465,-122.43576200000001, , 
1082,4380,14380,Diamond St & 29th St  , ,37.743249,-122.43565900000002, , 
1083,4381,14381,Diamond St & 29th St  , ,37.74308,-122.43548700000001, , 
1084,4382,14382,Diamond St & Arbor St   , ,37.738681,-122.434468, , 
1085,4383,14383,Diamond St & Arbor St   , ,37.738262,-122.434674, , 
1086,4384,14384,Diamond St & Cesar Chavez St  , ,37.747104,-122.435841, , 
1087,4385,14385,Diamond St & Cesar Chavez St  , ,37.747068,-122.43598999999999, , 
1088,4386,14386,Diamond St & Bosworth St  , ,37.733506,-122.434148, , 
1089,4387,14387,Diamond St & Bosworth St  , ,37.733452,-122.43421699999999, , 
1090,4388,14388,Diamond St & Chenery St  , ,37.73446,-122.43383899999999, , 
1091,4389,14389,Diamond St & Chenery St  , ,37.734469,-122.433953, , 
1092,4390,14390,Diamond St & Clipper St  , ,37.748853000000004,-122.43616200000001, , 
1093,4391,14391,Diamond St & Clipper St  , ,37.748683,-122.43598999999999, , 
1094,4392,14392,Diamond St & Conrad St  , ,37.7383,-122.4363, , 
1095,4393,14393,Diamond St & Conrad St  , ,37.738409999999995,-122.43593, , 
1096,4394,14394,Diamond St & Diamond Heights Blvd, ,37.741599,-122.43535, , 
1097,4395,14395,Diamond St & Diamond Heights Blvd, ,37.73822,-122.43726000000001, , 
1098,4397,14397,Diamond St & Diamond Heights Blvd, ,37.74192,-122.435476, , 
1099,4398,14398,Diamond St & Duncan St  , ,37.745641,-122.435864, , 
1100,4399,14399,Diamond St & Duncan St  , ,37.745471,-122.435693, , 
1101,4400,14400,Diamond St & Moffitt St   , ,37.7388,-122.43463, , 
1102,4401,14401,Diamond St & Moffitt St  , ,37.738890000000005,-122.4346, , 
1103,4402,14402,Diamond St & Surrey St  , ,37.73623,-122.43444, , 
1104,4403,14403,Diamond St & Surrey St  , ,37.73608,-122.43433, , 
1105,4404,14404,Diamond St & Sussex St   , ,37.737342,-122.43461699999999, , 
1106,4405,14405,Diamond St & Sussex St  , ,37.73731,-122.43475, , 
1107,4406,14406,Divisadero St & Bay St  , ,37.801907,-122.44331899999999, , 
1108,4407,14407,Divisadero St & Beach St  , ,37.803771999999995,-122.443697, , 
1109,4408,14408,Divisadero St & Bush St  , ,37.786283000000005,-122.439996, , 
1110,4409,14409,Divisadero St & California St , ,37.788184,-122.440385, , 
1111,4410,14410,Divisadero St & California St , ,37.787988,-122.4405, , 
1112,4411,14411,Divisadero St & Chestnut St  , ,37.800087,-122.44296399999999, , 
1113,4412,14412,Divisadero St & Clay St  , ,37.789977,-122.44074099999999, , 
1114,4413,14413,Divisadero St & Clay St  , ,37.789970000000004,-122.44089, , 
1115,4414,14414,Divisadero St & Eddy St  , ,37.780590999999994,-122.438942, , 
1116,4415,14415,Divisadero St & Eddy St  , ,37.780590999999994,-122.438942, , 
1117,4418,14418,Divisadero St & Francisco St  , ,37.80097,-122.44313600000001, , 
1118,4421,14421,Divisadero St & Geary Blvd  , ,37.783375,-122.439412, , 
1119,4422,14422,Divisadero St & Geary Blvd  , ,37.783159999999995,-122.439526, , 
1120,4423,14423,Divisadero St & Haight St  , ,37.771328999999994,-122.43698300000001, , 
1121,4424,14424,Divisadero St & Haight St  , ,37.77105,-122.4371, , 
1122,4425,14425,Divisadero St & Hayes St  , ,37.775059000000006,-122.437739, , 
1123,4426,14426,Divisadero St & Hayes St  , ,37.774889,-122.43786499999999, , 
1124,4427,14427,Divisadero St & Jackson St  , ,37.791540000000005,-122.44108, , 
1125,4428,14428,Divisadero St & Mcallister St , ,37.77786,-122.4383, , 
1126,4429,14429,Divisadero St & Mcallister St , ,37.777682,-122.43841499999999, , 
1127,4430,14430,Divisadero St & North Point St, ,37.802844,-122.443514, , 
1128,4431,14431,Divisadero St & Oak St  , ,37.773185,-122.43735, , 
1129,4432,14432,Divisadero St & Oak St  , ,37.773051,-122.437487, , 
1130,4433,14433,Divisadero St & Pine St  , ,37.786997,-122.440317, , 
1131,4434,14434,Divisadero St & Sutter St  , ,37.785338,-122.43981299999999, , 
1132,4435,14435,Divisadero St & Sutter St  , ,37.78515,-122.439939, , 
1133,4436,14436,Division St & Bryant St  , ,37.76934,-122.41073999999999, , 
1134,4437,14437,Division St & Rhode Island St , ,37.76976,-122.403152, , 
1135,4438,14438,Division St & Townsend St  , ,37.769894,-122.403301, , 
1136,4439,14439,Delta St & Tioga Ave   , ,37.717290000000006,-122.40773, , 
1137,4440,14440,Donahue St & Innes Ave   , ,37.729002,-122.36991299999998, , 
1138,4443,14443,Douglass St & 24th St  , ,37.75112,-122.43853999999999, , 
1139,4444,14444,Douglass St & Alvarado St  , ,37.75352,-122.43875, , 
1140,4445,14445,Drumm St & California St  , ,37.79398,-122.39635, , 
1141,4447,14447,Duboce Ave & Church St  , ,37.769472,-122.42940800000001, , 
1142,4448,14448,Duboce Ave & Church St  , ,37.769409,-122.4294, , 
1143,4453,14453,Duncan St & Amber Dr, ,37.7452,-122.44141, , 
1144,4454,14454,Duncan St & Cameo Way , ,37.74519,-122.44304, , 
1145,4455,14455,Duncan St & Diamond Heights Blvd , ,37.745259999999995,-122.44028999999999, , 
1146,4456,14456,Earl St & Kirkwood Ave   , ,37.728778999999996,-122.37313, , 
1147,4472,14472,Eddy St & Buchanan St  , ,37.781919,-122.428946, , 
1148,4473,14473,Eddy St & Buchanan St  , ,37.781766999999995,-122.42914099999999, , 
1149,4474,14474,Eddy St & Divisadero St  , ,37.780546,-122.438759, , 
1150,4475,14475,Eddy St & Fillmore St  , ,37.7815,-122.432236, , 
1151,4476,14476,Eddy St & Fillmore St  , ,37.781348,-122.43243100000001, , 
1152,4477,14477,Eddy St & Gough St  , ,37.782515999999994,-122.42426999999999, , 
1153,4478,14478,Eddy St & Gough St  , ,37.7824,-122.424201, , 
1154,4479,14479,Eddy St & Hyde St  , ,37.783478,-122.415718, , 
1155,4480,14480,Eddy St & Jones St  , ,37.783887,-122.412428, , 
1156,4481,14481,Eddy St & Larkin St  , ,37.783353000000005,-122.41769, , 
1157,4482,14482,Eddy St & Larkin St  , ,37.783273,-122.41735700000001, , 
1158,4483,14483,Eddy St & Leavenworth St  , ,37.783682,-122.414079, , 
1159,4484,14484,Eddy St & Laguna St  , ,37.782133,-122.427296, , 
1160,4485,14485,Eddy St & Laguna St  , ,37.782016999999996,-122.427227, , 
1161,4486,14486,Eddy St & Mason St  , ,37.78427,-122.409402, , 
1162,4487,14487,Eddy St & Pierce St  , ,37.781081,-122.435515, , 
1163,4488,14488,Eddy St & Pierce St  , ,37.780929,-122.435709, , 
1164,4489,14489,Eddy St & Polk St  , ,37.783184000000006,-122.41904199999999, , 
1165,4490,14490,Eddy St & Polk St  , ,37.783059,-122.41901899999999, , 
1166,4491,14491,Eddy St & Scott St  , ,37.780876,-122.437165, , 
1167,4492,14492,Eddy St & Scott St  , ,37.780724,-122.43736000000001, , 
1168,4493,14493,Eddy St & Taylor St  , ,37.784101,-122.410789, , 
1169,4494,14494,Eddy St & Van Ness Ave  , ,37.782988,-122.42061299999999, , 
1170,4495,14495,Eddy St & Van Ness Ave  , ,37.782863,-122.42058999999999, , 
1171,4496,14496,Ellis St & Jones St  , ,37.78488,-122.41315, , 
1172,4497,14497,Ellis St & Leavenworth St  , ,37.78471,-122.41427, , 
1173,4499,14499,Ellis St & Taylor St  , ,37.785090000000004,-122.41145, , 
1174,4501,14501,The Embarcadero & Bay St  , ,37.806945,-122.406278, , 
1175,4502,14502,The Embarcadero & Bay St  , ,37.806629,-122.40603, , 
1176,4503,14503,THE EMBARCADERO & BROADWAY, ,37.799552,-122.397869, , 
1177,4504,14504,THE EMBARCADERO & BROADWAY, ,37.798901,-122.397434, , 
1178,4506,14506,The Embarcadero & Brannan St   , ,37.784359,-122.38813799999998, , 
1179,4508,14508,The Embarcadero & Folsom St  , ,37.791078999999996,-122.39010400000001, , 
1180,4509,14509,The Embarcadero & Folsom St   , ,37.790481,-122.389692, , 
1181,4510,14510,The Embarcadero & Folsom St  , ,37.790749,-122.38984099999999, , 
1182,4511,14511,The Embarcadero & Folsom St  , ,37.790561,-122.389898, , 
1183,4513,14513,THE EMBARCADERO/Ferry Building, ,37.795105,-122.39386100000002, , 
1184,4515,14515,The Embarcadero & Greenwich St, ,37.803263,-122.401113, , 
1185,4516,14516,The Embarcadero & Greenwich St, ,37.80296,-122.40102900000001, , 
1186,4517,14517,The Embarcadero & Green St  , ,37.801264,-122.399369, , 
1187,4518,14518,The Embarcadero & Green St  , ,37.800605,-122.39891999999999, , 
1188,4519,14519,The Embarcadero & Howard St  , ,37.792685999999996,-122.39114599999999, , 
1189,4520,14520,The Embarcadero & Howard St  , ,37.792159000000005,-122.391066, , 
1190,4529,14529,The Embarcadero & Sansome St  , ,37.805021999999994,-122.403314, , 
1191,4530,14530,The Embarcadero & Stockton St , ,37.808351,-122.41028700000001, , 
1192,4531,14531,The Embarcadero & Townsend St  , ,37.7836,-122.38832, , 
1193,4532,14532,The Embarcadero & Washington St, ,37.797084999999996,-122.39567, , 
1194,4534,14534,The Embarcadero & Washington St, ,37.796355,-122.39518100000001, , 
1195,4535,14535,Eureka St & 18th St  , ,37.760631,-122.43818799999998, , 
1196,4536,14536,Eureka St & 19th St  , ,37.759034,-122.43803899999999, , 
1197,4537,14537,Eureka St & 20th St  , ,37.75741,-122.43787900000001, , 
1198,4538,14538,Eureka St & 21st St  , ,37.755973,-122.43790200000001, , 
1199,4539,14539,Eureka St & 21st St  , ,37.755813,-122.43773, , 
1200,4540,14540,Eureka St & 22nd St  , ,37.754366999999995,-122.43774199999999, , 
1201,4541,14541,Eureka St & 22nd St  , ,37.754215,-122.43757, , 
1202,4542,14542,Eureka St & 23rd St  , ,37.752790000000005,-122.43758999999999, , 
1203,4543,14543,Eureka St & Market St  , ,37.761594,-122.43828, , 
1204,4544,14544,Eucalyptus Dr & 19th Ave  , ,37.731157,-122.474744, , 
1205,4545,14545,Eucalyptus Dr & 19th Ave  , ,37.731041,-122.474538, , 
1206,4546,14546,Eucalyptus Dr & Junipero Serra Blvd, ,37.730988,-122.47244199999999, , 
1207,4547,14547,Evans Ave & 3rd St   , ,37.742628,-122.38786200000001, , 
1208,4548,14548,Evans Ave & Cesar Chavez St  , ,37.749066,-122.39688600000001, , 
1209,4549,14549,Evans Ave & Cesar Chavez St  , ,37.74903,-122.39706899999999, , 
1210,4550,14550,Evans Ave & Keith St   , ,37.73877,-122.380797, , 
1211,4551,14551,Evans Ave & Keith St   , ,37.738761,-122.381084, , 
1212,4552,14552,Evans Ave & Middle Point Rd   , ,37.737671999999996,-122.37925200000001, , 
1213,4553,14553,Evans Ave & Mendell St   , ,37.740699,-122.38450700000001, , 
1214,4555,14555,Evans Ave & Newhall St, ,37.741949,-122.386408, , 
1215,4556,14556,Evans Ave & Napoleon St   , ,37.747263000000004,-122.39587900000001, , 
1216,4557,14557,Evans Ave & Napoleon St   , ,37.747343,-122.396257, , 
1217,4558,14558,Evans Ave & Newhall St  , ,37.740003,-122.38297299999999, , 
1218,4559,14559,Evans Ave & Phelps St   , ,37.742994,-122.388309, , 
1219,4560,14560,Evans Ave & Phelps St   , ,37.742977,-122.388595, , 
1220,4561,14561,Evans Ave & Quint St   , ,37.744245,-122.39053100000001, , 
1221,4562,14562,Evans Ave & Selby St   , ,37.745968,-122.39384, , 
1222,4564,14564,EVANS AVE/Opposite US Post Office, ,37.739717,-122.38281299999998, , 
1223,4565,14565,909 Ellsworth St  , ,37.73284,-122.41678999999999, , 
1224,4566,14566,945 Ellsworth St  , ,37.73281,-122.41776000000002, , 
1225,4567,14567,989 Ellsworth St   , ,37.732620000000004,-122.41893, , 
1226,4568,14568,Ellsworth St & Crescent Ave  , ,37.73471,-122.41491, , 
1227,4571,14571,Excelsior Ave & Madrid St   , ,37.72475,-122.43059, , 
1228,4572,14572,Excelsior Ave & Mission St   , ,37.726162,-122.433577, , 
1229,4573,14573,Excelsior Ave & Naples St   , ,37.72399,-122.42898999999998, , 
1230,4574,14574,Excelsior Ave & Paris St   , ,37.72552,-122.43218999999999, , 
1231,4575,14575,50 THOMAS MELLON DR, ,37.709831,-122.39289299999999, , 
1232,4576,14576,Executive Park Blvd & Blanken Ave, ,37.710879999999996,-122.39476, , 
1233,4579,14579,Farnum St & Moffitt St  , ,37.738333000000004,-122.434067, , 
1234,4580,14580,Fell St & Gough St  , ,37.77597,-122.42302, , 
1235,4581,14581,Felton St & Amherst St  , ,37.72702,-122.41633999999999, , 
1236,4582,14582,Felton St & Amherst St  , ,37.72688,-122.41653000000001, , 
1237,4583,14583,Felton St & Cambridge St  , ,37.7264,-122.41873999999999, , 
1238,4584,14584,Felton St & Cambridge St  , ,37.72637,-122.41851000000001, , 
1239,4587,14587,Felton St & Harvard St  , ,37.725970000000004,-122.42028, , 
1240,4588,14588,Felton St & Harvard St  , ,37.72586,-122.42046, , 
1241,4589,14589,Felton St & Madison St  , ,37.725598,-122.42204299999999, , 
1242,4590,14590,Felton St & Madison St  , ,37.725429999999996,-122.42211, , 
1243,4593,14593,Felton St & Peru Ave  , ,37.7252,-122.42323999999999, , 
1244,4596,14596,Felton St & University St  , ,37.7274,-122.41457, , 
1245,4599,14599,Field Rd/Visitor Center, ,37.83048,-122.52441100000001, , 
1246,4600,14600,Field Rd & Bunker Rd   , ,37.831337,-122.52326399999998, , 
1247,4601,14601,FIELD RD/Nike Site, ,37.82906,-122.52767, , 
1248,4602,14602,FIELD RD/Youth Hostel, ,37.83166,-122.52345, , 
1249,4603,14603,Fillmore St & Bay St  , ,37.802585,-122.43668000000001, , 
1250,4604,14604,Fillmore St & Broadway  , ,37.794158,-122.43484199999999, , 
1251,4605,14605,Fillmore St & Broadway  , ,37.793805,-122.434878, , 
1252,4606,14606,Fillmore St & Beach St  , ,37.804423,-122.437127, , 
1253,4607,14607,Fillmore St & Beach St  , ,37.804446999999996,-122.436958, , 
1254,4608,14608,Fillmore St & Chestnut St  , ,37.801091,-122.436229, , 
1255,4609,14609,Fillmore St & Chestnut St  , ,37.800891,-122.43646899999999, , 
1256,4610,14610,Fillmore St & Cervantes Blvd  , ,37.802817,-122.436806, , 
1257,4611,14611,Fillmore St & Eddy St  , ,37.781733,-122.43232900000001, , 
1258,4612,14612,Fillmore St & Eddy St  , ,37.781523,-122.432401, , 
1259,4613,14613,Fillmore St & Golden Gate Ave , ,37.779859,-122.431955, , 
1260,4614,14614,Fillmore St & Geary Blvd  , ,37.784733,-122.432921, , 
1261,4615,14615,Fillmore St & Geary Blvd  , ,37.783984000000004,-122.43291, , 
1262,4616,14616,Fillmore St & Grove St  , ,37.776998,-122.43136899999999, , 
1263,4617,14617,Fillmore St & Grove St  , ,37.776859,-122.431472, , 
1264,4618,14618,Fillmore St & Haight St  , ,37.772199,-122.43053700000002, , 
1265,4620,14620,Fillmore St & Haight St  , ,37.772033,-122.430347, , 
1266,4621,14621,Fillmore St & Hayes St  , ,37.776106,-122.431197, , 
1267,4622,14622,Fillmore St & Hayes St  , ,37.775597999999995,-122.431207, , 
1268,4623,14623,Fillmore St & Jackson St  , ,37.792761,-122.434556, , 
1269,4624,14624,Fillmore St & Jackson St  , ,37.792386,-122.434607, , 
1270,4625,14625,Fillmore St & Jefferson St  , ,37.805421,-122.437389, , 
1271,4626,14626,Fillmore St & Lombard St  , ,37.799707,-122.435952, , 
1272,4627,14627,Fillmore St & Lombard St  , ,37.799595000000004,-122.436051, , 
1273,4628,14628,Fillmore St & Mcallister St  , ,37.77854,-122.43168700000001, , 
1274,4629,14629,Fillmore St & Mcallister St  , ,37.778343,-122.431762, , 
1275,4630,14630,Fillmore St & North Point St  , ,37.803546999999995,-122.43679099999999, , 
1276,4631,14631,Fillmore St & Oak St  , ,37.774268,-122.430825, , 
1277,4632,14632,Fillmore St & Oak St  , ,37.773759000000005,-122.430866, , 
1278,4633,14633,Fillmore St & O'Farrell St  , ,37.783193,-122.432627, , 
1279,4634,14634,Fillmore St & O'Farrell St  , ,37.783019,-122.432699, , 
1280,4635,14635,Fillmore St & Pine St  , ,37.788049,-122.43356499999999, , 
1281,4636,14636,Fillmore St & Pine St  , ,37.787717,-122.433655, , 
1282,4637,14637,Fillmore St & Sacramento St  , ,37.789925,-122.4341, , 
1283,4638,14638,Fillmore St & Sacramento St  , ,37.789744,-122.433947, , 
1284,4640,14640,Fillmore St & Sutter St  , ,37.786051,-122.43324399999999, , 
1285,4641,14641,Fillmore St & Sutter St  , ,37.785814,-122.433268, , 
1286,4642,14642,Fillmore St & Turk St  , ,37.780204,-122.432138, , 
1287,4643,14643,Fillmore St & Union St  , ,37.797391,-122.43548899999999, , 
1288,4645,14645,Fitzgerald Ave & Hawes St   , ,37.719921,-122.389587, , 
1289,4646,14646,Fitzgerald Ave & Ingalls St   , ,37.720966,-122.391453, , 
1290,4647,14647,Fitzgerald Ave & Jennings St   , ,37.722028,-122.39331999999999, , 
1291,4648,14648,Fitzgerald Ave & Keith St   , ,37.722895,-122.394842, , 
1292,4649,14649,Foerster St & Flood Ave  , ,37.729795,-122.448765, , 
1293,4650,14650,Foerster St & Judson Ave  , ,37.728491999999996,-122.448753, , 
1294,4651,14651,Foerster St & Mangels Ave  , ,37.73315,-122.448948, , 
1295,4652,14652,Foerster St & Mangels Ave  , ,37.732989,-122.448788, , 
1296,4654,14654,Foerster St & Teresita Blvd  , ,37.734194,-122.448799, , 
1297,4657,14657,Folsom St & 3rd St   , ,37.783989,-122.398753, , 
1298,4658,14658,Folsom St & 4th St   , ,37.782045000000004,-122.401104, , 
1299,4659,14659,Folsom St & 5th St   , ,37.780386,-122.403099, , 
1300,4660,14660,Folsom St & 6th St   , ,37.778628999999995,-122.405324, , 
1301,4661,14661,Folsom St & 7th St   , ,37.776641,-122.407847, , 
1302,4662,14662,Folsom St & 8th St   , ,37.775115,-122.409773, , 
1303,4663,14663,Folsom St & 9th St   , ,37.773894,-122.411321, , 
1304,4664,14664,Folsom St & 11th St   , ,37.771905,-122.41395800000001, , 
1305,4665,14665,Folsom St & 11th St   , ,37.771833,-122.41413, , 
1306,4666,14666,Folsom St & 14th St  , ,37.768461,-122.415667, , 
1307,4667,14667,Folsom St & 14th St  , ,37.768461,-122.41553, , 
1308,4668,14668,Folsom St & 16th St  , ,37.765570000000004,-122.415245, , 
1309,4669,14669,Folsom St & 16th St  , ,37.765231,-122.41541699999999, , 
1310,4671,14671,Folsom St & 18th St  , ,37.762215000000005,-122.414914, , 
1311,4672,14672,Folsom St & 18th St  , ,37.761858000000004,-122.41508600000002, , 
1312,4675,14675,Folsom St & 22nd St  , ,37.755951,-122.414332, , 
1313,4676,14676,Folsom St & 22nd St  , ,37.75546,-122.41448100000001, , 
1314,4677,14677,Folsom St & 24th St  , ,37.752757,-122.414024, , 
1315,4680,14680,Folsom St & 25th St  , ,37.750999,-122.414048, , 
1316,4681,14681,Folsom St & 25th St  , ,37.750828999999996,-122.41384199999999, , 
1317,4686,14686,Folsom St & Bessie St  , ,37.74687,-122.41362, , 
1318,4687,14687,Folsom St & Cortland Ave  , ,37.73888,-122.4133, , 
1319,4688,14688,Folsom St & Cortland Ave  , ,37.7388,-122.41337, , 
1320,4689,14689,Folsom St & Crescent Ave  , ,37.73494,-122.41365, , 
1321,4690,14690,Folsom St & Crescent Ave  , ,37.73483,-122.41372, , 
1322,4695,14695,Folsom St & Ogden St  , ,37.73605,-122.41351999999999, , 
1323,4696,14696,Folsom St & Ogden St  , ,37.73579,-122.41363999999999, , 
1324,4697,14697,Folsom St & Precita Ave  , ,37.7471,-122.41349, , 
1325,4698,14698,Folsom St & Stoneman St  , ,37.74532,-122.41336000000001, , 
1326,4699,14699,Folsom St & Stoneman St  , ,37.74521,-122.41345, , 
1327,4700,14700,Folsom St & Tompkins St  , ,37.73718,-122.41344, , 
1328,4701,14701,Folsom St & Tompkins St  , ,37.737159999999996,-122.41351999999999, , 
1329,4702,14702,Font Blvd & Arballo Dr, ,37.721759999999996,-122.482151, , 
1330,4703,14703,Font Blvd & Arballo Dr   , ,37.72184,-122.48253999999999, , 
1331,4704,14704,Font Blvd & Chumasero Dr   , ,37.715213,-122.473169, , 
1332,4705,14705,Font Blvd & Cambon Dr   , ,37.715899,-122.47429199999999, , 
1333,4706,14706,Font Blvd & Cambon Dr   , ,37.715899,-122.47457800000001, , 
1334,4707,14707,Font Blvd & Gonzalez Dr, ,37.716782,-122.47575800000001, , 
1335,4709,14709,Font Blvd & Juan Bautista Cir, ,37.717701,-122.477076, , 
1336,4710,14710,Font Blvd & Serrano Dr, ,37.719601000000004,-122.479607, , 
1337,4712,14712,Font Blvd & Tapia Dr, ,37.72068,-122.480902, , 
1338,4714,14714,Frederick St & Arguello Blvd  , ,37.766047,-122.45763500000001, , 
1339,4715,14715,Frederick St & Ashbury St  , ,37.767261,-122.44669099999999, , 
1340,4716,14716,Frederick St & Ashbury St  , ,37.767145,-122.44646200000001, , 
1341,4717,14717,Frederick St & Clayton St  , ,37.7671,-122.44791699999999, , 
1342,4718,14718,Frederick St & Stanyan St  , ,37.766413,-122.45325700000001, , 
1343,4719,14719,Frederick St & Willard St  , ,37.766208,-122.454908, , 
1344,4720,14720,Frederick St & Willard St  , ,37.766092,-122.454701, , 
1345,4725,14725,Fremont St & Market St   , ,37.791645,-122.398151, , 
1346,4726,14726,Don Chee Way/Steuart St, ,37.794052,-122.393449, , 
1347,4727,14727,Don Chee Way/Steuart St , ,37.793918,-122.39343799999999, , 
1348,4728,14728,Fort Cronkhite Parking Lot, ,37.83238,-122.53867, , 
1349,4729,14729,Marina Blvd & Laguna St, ,37.805118,-122.432185, , 
1350,4730,14730,Fulton St & 4th Ave  , ,37.773952,-122.46165900000001, , 
1351,4731,14731,Fulton St & 4th Ave  , ,37.77384,-122.46125, , 
1352,4732,14732,Fulton St & 6th Ave  , ,37.773639,-122.463848, , 
1353,4733,14733,Fulton St & 6th Ave  , ,37.773532,-122.46383700000001, , 
1354,4734,14734,Fulton St & 8th Ave  , ,37.77347,-122.466049, , 
1355,4735,14735,Fulton St & 8th Ave  , ,37.773317999999996,-122.46573899999999, , 
1356,4736,14736,Fulton St & 10th Ave  , ,37.77335,-122.46838999999999, , 
1357,4737,14737,Fulton St & 10th Ave  , ,37.77325,-122.46761000000001, , 
1358,4742,14742,Fulton St & 18th Ave  , ,37.772959,-122.476776, , 
1359,4746,14746,Fulton St & 22nd Ave  , ,37.77276,-122.48133999999999, , 
1360,4747,14747,Fulton St & 22nd Ave  , ,37.772659999999995,-122.48061000000001, , 
1361,4748,14748,Fulton St & 25th Ave  , ,37.772591,-122.484306, , 
1362,4749,14749,Fulton St & 25th Ave  , ,37.772546999999996,-122.4841, , 
1363,4751,14751,Fulton St & 28th Ave  , ,37.77235,-122.48716999999999, , 
1364,4753,14753,Fulton St & 30th Ave  , ,37.772240000000004,-122.48919, , 
1365,4755,14755,Geary Blvd & Park Presidio Blvd, ,37.780687,-122.47242299999999, , 
1366,4756,14756,Geary Blvd & Park Presidio Blvd, ,37.780526,-122.472676, , 
1367,4757,14757,Geary St & Powell St, ,37.787401,-122.408391, , 
1368,4758,14758,Geary Blvd & Presidio Ave   , ,37.782536,-122.44668999999999, , 
1369,4760,14760,Geary Blvd & Scott St  , ,37.783846999999994,-122.43776100000001, , 
1370,4761,14761,Geary Blvd & Scott St  , ,37.783623999999996,-122.437669, , 
1371,4762,14762,Geary Blvd & Spruce St  , ,37.781849,-122.453075, , 
1372,4763,14763,Geary Blvd & Spruce St  , ,37.781599,-122.453258, , 
1373,4764,14764,Geary Blvd & Stanyan St  , ,37.781259999999996,-122.456434, , 
1374,4765,14765,Geary Blvd & St Joseph'S Ave  , ,37.782795,-122.44254099999999, , 
1375,4766,14766,Geary St & Stockton St, ,37.787642,-122.40648799999998, , 
